[
  {
    "Name": "Urgent Care for Children - Trussville",
    "Address": "117 North Chalkville Road Trussville, AL 35173",
    "Hours": "2pm - 10 pm Monday - Friday; 10am - 8pm Saturday - Sunday",
    "Latitude": 33.6214073,
    "Longitude": -86.6086818,
    "State": "Alabama",
    "Phone": "(205) 848-2273",
    "Main Website": "https://www.childrensurgent.com/coronavirus-update-and-testing-hotline/",
    "Appointment Needed": "Yes"
  },
  {
    "Name": "Urgent Care for Children - Vestavia",
    "Address": "520 Montgomery Highway Vestavia, AL 35216",
    "Hours": "2pm - 10 pm Monday - Friday; 10am - 8pm Saturday - Sunday",
    "Latitude": 33.4500631,
    "Longitude": -86.7895963,
    "State": "Alabama",
    "Phone": "(205) 848-2273",
    "Main Website": "https://www.childrensurgent.com/coronavirus-update-and-testing-hotline/",
    "Appointment Needed": "Yes"
  },
  {
    "Name": "Urgent Care for Children - Madison",
    "Address": "8490 Highway 72 West Madison, AL 35758",
    "Hours": "2pm - 10 pm Monday - Friday; 10am - 8pm Saturday - Sunday",
    "Latitude": 34.749287,
    "Longitude": -86.769155,
    "State": "Alabama",
    "Phone": "(256) 724-3587",
    "Main Website": "https://www.childrensurgent.com/coronavirus-update-and-testing-hotline/",
    "Appointment Needed": "Yes"
  },
  {
    "Name": "Urgent Care for Children - Highway 280",
    "Address": "500 Cahaba Park Circle Suite 100 Birmingham, AL 35242",
    "Hours": "2pm - 10 pm Monday - Friday; 10am - 8pm Saturday - Sunday",
    "Latitude": 33.4307422,
    "Longitude": -86.7064615,
    "State": "Alabama",
    "Phone": "(205) 848-2273",
    "Main Website": "https://www.childrensurgent.com/coronavirus-update-and-testing-hotline/",
    "Appointment Needed": "Yes"
  },
  {
    "Name": "Urgent Care for Children - Tuscaloosa",
    "Address": "4700 Rice Mine Rd Northeast Tuscaloosa, AL 35406",
    "Hours": "2pm - 10 pm Monday - Friday; 10am - 8pm Saturday - Sunday",
    "Latitude": 33.2604261,
    "Longitude": -87.5156847,
    "State": "Alabama",
    "Phone": "(205) 614-5628",
    "Main Website": "https://www.childrensurgent.com/coronavirus-update-and-testing-hotline/",
    "Appointment Needed": "Yes"
  },
  {
    "Name": "Fairbanks Regional Public Health Center Interior Region",
    "Address": "1025 W Barnette St, Fairbanks, AK 99701",
    "Hours": "8A.M.- 5P.M",
    "State": "Alaska",
    "Phone": "907-452-1776",
    "Main Website": "http://dhss.alaska.gov/dph/Nursing/Pages/Frontier%20Region%20Public%20Health%20Center%20Pages/Fairbanks-Regional-Public-Health-Center.aspx",
    "Appointment Needed": "Yes",
    "Latitude": 64.838823,
    "Longitude": -147.7270511
  },
  {
    "Name": "Tok Public Health Center",
    "Address": "1314 Alaska Highway, Tok, AK 99780",
    "Hours": "8A.M.- 5P.M",
    "State": "Alaska",
    "Phone": "907-883-4101",
    "Main Website": "http://dhss.alaska.gov/dph/Nursing/Pages/Frontier%20Region%20Public%20Health%20Center%20Pages/Tok-Public-Health-Center.aspx",
    "Appointment Needed": "Yes",
    "Latitude": 63.3381236,
    "Longitude": -143.0083326
  },
  {
    "Name": "Homer Public Health Center",
    "Address": "195 E Bunnell Ave Ste C, Homer, AK 99603",
    "Hours": "8A.M.- 5P.M",
    "State": "Alaska",
    "Phone": "907-235-8857",
    "Main Website": "http://dhss.alaska.gov/dph/Nursing/Pages/Homer-Public-Health-Center.aspx",
    "Appointment Needed": "Yes",
    "Latitude": 59.640067,
    "Longitude": -151.53924
  },
  {
    "Name": "Kenai Public Health Center",
    "Address": "630 Barnacle Way Ste A, Kenai, AK 99611",
    "Hours": "8A.M.- 5P.M",
    "State": "Alaska",
    "Phone": "907-335-3400",
    "Main Website": "http://dhss.alaska.gov/dph/Nursing/Pages/Kenai-Public-Health-Center.aspx",
    "Appointment Needed": "Yes",
    "Latitude": 60.558121,
    "Longitude": -151.2519571
  },
  {
    "Name": "Matanuska-Susitna (Mat-Su-Public Health Center",
    "Address": "3223 E Palmer Wasilla Hwy Ste 3, Wasilla, AK 99654",
    "Hours": "8A.M.- 5P.M",
    "State": "Alaska",
    "Phone": "907-352-6600",
    "Main Website": "http://dhss.alaska.gov/dph/Nursing/Pages/Mat-Su-Public-Health-Center.aspx",
    "Appointment Needed": "Yes",
    "Latitude": 61.5861846,
    "Longitude": -149.3698132
  },
  {
    "Name": "Bethel Center and Itinerant Nursing Services",
    "Address": "1490 State Hwy, Bethel, AK 99559",
    "Hours": "8A.M.- 5P.M",
    "State": "Alaska",
    "Phone": "907-543-2110",
    "Main Website": "http://dhss.alaska.gov/dph/Nursing/Pages/South%20Central%20Public%20Health%20Center%20Pages/Bethel-Public-Health-Center.aspx",
    "Appointment Needed": "Yes",
    "Latitude": 60.7927467,
    "Longitude": -161.7696992
  },
  {
    "Name": "Dillingham Public Health Center",
    "Address": "125 Main Street, Dillingham, AK 99576",
    "Hours": "8A.M.- 5P.M",
    "State": "Alaska",
    "Phone": "907-842-5981",
    "Main Website": "http://dhss.alaska.gov/dph/Nursing/Pages/South%20Central%20Public%20Health%20Center%20Pages/Dillingham-Public-Health-Center.aspx",
    "Appointment Needed": "Yes",
    "Latitude": 59.0400625,
    "Longitude": -158.456612
  },
  {
    "Name": "\nKodiak Public Health Center",
    "Address": "316 Mission Rd Ste 207, Kodiak, AK 99615",
    "Hours": "8A.M.- 5P.M",
    "State": "Alaska",
    "Phone": "907-486-3319",
    "Main Website": "http://dhss.alaska.gov/dph/Nursing/Pages/South%20Central%20Public%20Health%20Center%20Pages/Kodiak-Public-Health-Center.aspx",
    "Appointment Needed": "Yes",
    "Latitude": 57.7886659,
    "Longitude": -152.4006792
  },
  {
    "Name": "Nome Public Health Center",
    "Address": "607 Division St, Nome, AK 99762",
    "Hours": "8A.M.- 5P.M",
    "State": "Alaska",
    "Phone": "907-443-3221",
    "Main Website": "http://dhss.alaska.gov/dph/Nursing/Pages/South%20Central%20Public%20Health%20Center%20Pages/Nome-Public-Health-Center.aspx",
    "Appointment Needed": "Yes",
    "Latitude": 64.5021731,
    "Longitude": -165.4041034
  },
  {
    "Name": "\nValdez Public Health Center",
    "Address": "1001 Meals Ave, Valdez, AK 99686",
    "Hours": "8A.M.- 5P.M",
    "State": "Alaska",
    "Phone": "907-835-4612",
    "Main Website": "http://dhss.alaska.gov/dph/Nursing/Pages/Valdez-Public-Health-Center.aspx",
    "Appointment Needed": "Yes",
    "Latitude": 61.131388,
    "Longitude": -146.3499884
  },
  {
    "Name": "Providence Alaska Medical Center",
    "Address": "3200 Providence Drive, Anchorage, AK 99508\n",
    "Hours": "8A.M.- 5P.M",
    "State": "Alaska",
    "Phone": "907-562-2211",
    "Main Website": "https://alaska.providence.org/locations/p/pamc",
    "Appointment Needed": "Yes",
    "Latitude": 61.1879049,
    "Longitude": -149.8169137
  },
  {
    "Name": "Providence Kodiak Island Medical Center",
    "Address": "1915 East Rezanof Drive, Kodiak Island, AK 99615",
    "Hours": "8A.M.- 5P.M",
    "State": "Alaska",
    "Phone": "907-486-9500",
    "Main Website": "https://alaska.providence.org/locations/p/pkimc",
    "Appointment Needed": "Yes",
    "Latitude": 57.8008837,
    "Longitude": -152.3756472
  },
  {
    "Name": "Providence Seward Medical Center",
    "Address": "417 1st Avenue, Seward, AK 99664",
    "Hours": "8A.M.- 5P.M",
    "State": "Alaska",
    "Phone": "907-224-5205",
    "Main Website": "https://alaska.providence.org/locations/p/psmcc",
    "Appointment Needed": "Yes",
    "Latitude": 60.1049748,
    "Longitude": -149.4463118
  },
  {
    "Name": "Providence Valdez Medical Center",
    "Address": "911 Meals Ave, Valdez, AK 99686",
    "Hours": "8A.M.- 5P.M",
    "State": "Alaska",
    "Phone": "907-835-2249",
    "Main Website": "https://alaska.providence.org/locations/p/pvmc",
    "Appointment Needed": "Yes",
    "Latitude": 61.1364781,
    "Longitude": -146.3458866
  },
  {
    "Name": "Haines Health Center",
    "Address": "131 1st Avenue, Haines, AK 99827",
    "Hours": "7A.M.- 4P.M",
    "State": "Alaska",
    "Phone": "907-766-6300",
    "Main Website": "https://searhc.org/location/haines-health-center/",
    "Appointment Needed": "Yes",
    "Latitude": 59.233399,
    "Longitude": -135.445026
  },
  {
    "Name": "Hoonah Health Center",
    "Address": "490 Gartina Highway, Hoonah, AK 99829",
    "Hours": "7A.M.- 4P.M",
    "State": "Alaska",
    "Phone": "907-945-2735",
    "Main Website": "https://searhc.org/location/hoonah-health-center/",
    "Appointment Needed": "Yes",
    "Latitude": 58.1017837,
    "Longitude": -135.4155273
  },
  {
    "Name": "Jessie Norma Jim Health Center",
    "Address": "725 Relay Road, Angoon, AK 99820\n",
    "Hours": "7A.M.- 4P.M",
    "State": "Alaska",
    "Phone": "907-788-4600",
    "Main Website": "https://searhc.org/location/jessie-norma-jim-health-center/",
    "Appointment Needed": "Yes",
    "Latitude": 57.499091,
    "Longitude": -134.5802606
  },
  {
    "Name": "Pelican Health Center",
    "Address": "101 Salmon Way, Pelican, AK 99832",
    "Hours": "7A.M.- 4P.M",
    "State": "Alaska",
    "Phone": "907-735-2250",
    "Main Website": "https://searhc.org/location/pelican-health-center/",
    "Appointment Needed": "Yes",
    "Latitude": 57.9586319,
    "Longitude": -136.2240767
  },
  {
    "Name": "Klukwan Health Center",
    "Address": "11 Chilkat Avenue, Klukwan, AK 99827",
    "Hours": "7A.M.- 4P.M",
    "State": "Alaska",
    "Phone": "907-766-6300",
    "Main Website": "https://searhc.org/location/searhc-klukwan-clinic/",
    "Appointment Needed": "Yes",
    "Latitude": 59.3986605,
    "Longitude": -135.8945443
  },
  {
    "Name": "Prairie Grove Elementary School",
    "Address": "801 Viney Grove Road Prairie Grove, AR 72753",
    "Hours": "Monday through Friday, 8:30 a.m. to 4:30 p.m.",
    "Latitude": 35.9841514,
    "Longitude": -94.3259325,
    "State": "Arkansas",
    "Phone": "(855) 438-2280",
    "Main Website": "https://www.communityclinicnwa.org/prairie-grove/",
    "Appointment Needed": "Yes",
    "Drive Through": true
  },
  {
    "Name": "Siloam Springs Community Clinic",
    "Address": "500 S. Mt. Olive Street #200 Siloam Springs, AR 72761",
    "Hours": "Monday: 7 a.m. to 5 p.m.; Tuesday: 8 a.m. to 7 p.m.; Wednesday through Friday: 8 a.m. to 5 p.m",
    "Latitude": 36.1811515,
    "Longitude": -94.5420558,
    "State": "Arkansas",
    "Phone": "(855) 438-2280",
    "Main Website": "https://www.communityclinicnwa.org/siloam-springs/",
    "Appointment Needed": "Yes",
    "Drive Through": true
  },
  {
    "Name": "Rogers Community Clinic",
    "Address": "1233 W. Poplar Street Rogers, AR 72756",
    "Hours": "Monday 7:30 to 6 p.m.; Tuesday 7:30 a.m. to 7 p.m.; Wednesday 7:30 a.m. to 6 p.m.; Thursday: 7:30 a.m. to 6 p.m.; Friday: 7:30 a.m. to 5 p.m.",
    "Latitude": 36.3325901,
    "Longitude": -94.1341388,
    "State": "Arkansas",
    "Phone": "(855) 438-2280",
    "Main Website": "https://www.communityclinicnwa.org/siloam-springs/",
    "Appointment Needed": "Yes",
    "Drive Through": true
  },
  {
    "Name": "Elmdale Elementary",
    "Address": "420 North West End, Suite B Springdale, AR 72764",
    "Hours": "Monday through Friday: 8 a.m. to 4:30 p.m.",
    "Latitude": 36.1908951,
    "Longitude": -94.1479339,
    "State": "Arkansas",
    "Phone": "(855) 438-2281",
    "Main Website": "https://www.communityclinicnwa.org/springdale/",
    "Appointment Needed": "Yes",
    "Drive Through": true
  },
  {
    "Name": "Washington Regional Coronavirus Screening Clinic",
    "Address": "3318 N Northhills Blvd, Fayetteville, AR 72703",
    "Hours": "10 a.m. - 6 p.m., 7 days per week for clinic, 8 a.m.-6 p.m. 7 days per week for screening hotline",
    "Latitude": 36.1117526,
    "Longitude": -94.1568951,
    "State": "Arkansas",
    "Phone": "(479) 463-2055",
    "Main Website": "https://www.wregional.com/main/coronavirus",
    "Appointment Needed": "CDC Criteria",
    "Drive Through": true
  },
  {
    "Name": "Eureka Springs Family Medical Clinic",
    "Address": "146 Passion Play Rd, Eureka Springs, AR 72632",
    "Hours": "8:00 a.m. - 4:30 p.m. Monday - Friday",
    "Latitude": 36.3950928,
    "Longitude": -93.7107101,
    "State": "Arkansas",
    "Phone": "(479) 253-9746",
    "Main Website": "https://www.wregional.com/main/coronavirus",
    "Appointment Needed": "CDC Criteria",
    "Drive Through": true
  },
  {
    "Name": "El Camino Health Urgent Care",
    "Address": "4150 N 1st St, San Jose, CA 95134",
    "Hours": "9 am - 7 pm",
    "Latitude": 37.4170465,
    "Longitude": -121.9540153,
    "State": "California",
    "Phone": "(669) 200-4558"
  },
  {
    "Name": "Carbon Health",
    "Address": "1679 E Monte Vista Ave, Suite 104, Vacaville, CA 95688",
    "Hours": "9 am - 7 pm",
    "Latitude": 38.3700674,
    "Longitude": -121.9606114,
    "State": "California",
    "Phone": "(707) 624-7400"
  },
  {
    "Name": "Stanford Express Care Palo Alto",
    "Address": "211 Quarry Road Suite 102 Palo Alto, CA 94304",
    "Hours": "9 am - 6 pm, Every day",
    "Latitude": 37.4415149,
    "Longitude": -122.1686795,
    "State": "California",
    "Phone": "(650) 736-5211"
  },
  {
    "Name": "Carbon Health",
    "Address": "1998 Market St, San Francisco, CA 94102",
    "Hours": "9 am - 7 pm",
    "Latitude": 37.7699654,
    "Longitude": -122.4262419,
    "State": "California",
    "Phone": "(415) 792-6040"
  },
  {
    "Name": "UC San Francisco",
    "Address": "505 Parnassus Ave, San Francisco, CA 94143",
    "Hours": "24 hours",
    "Latitude": 37.7631182,
    "Longitude": -122.4578207,
    "State": "California",
    "Phone": "(415) 476-1000"
  },
  {
    "Name": "Stanford Primary Care in Santa Clara",
    "Address": "2518 Mission College Blvd #101, Santa Clara, CA 95054",
    "Hours": "8 am - 5 pm, Monday - Friday",
    "Latitude": 37.3885747,
    "Longitude": -121.9705061,
    "State": "California",
    "Phone": "(408) 688-9720"
  },
  {
    "Name": "Stanford Primary Care in Los Altos",
    "Address": "960 N. San Antonio Road, Ste. 101, Los Altos, CA 94022",
    "Hours": "8 am - 5 pm, Monday - Friday",
    "Latitude": 37.399016,
    "Longitude": -122.114663,
    "State": "California",
    "Phone": "(650) 498-9000"
  },
  {
    "Name": "Carbon Health",
    "Address": "2110 Sunset Blvd, Suite M, Los Angeles CA 90026",
    "Hours": "9 am - 7 pm",
    "Latitude": 34.077189,
    "Longitude": -118.2641266,
    "State": "California",
    "Phone": "(833) 873-2852"
  },
  {
    "Name": "UC San Diego Medical Center",
    "Address": "200 W Arbor Dr, San Diego, CA 92103",
    "Hours": "24 hours",
    "Latitude": 32.7542698,
    "Longitude": -117.166135,
    "State": "California",
    "Phone": "(858) 657-7000"
  },
  {
    "Name": "Sierra Nevada Memorial Hospital",
    "Address": "155 Glasson Way, Grass Valley, CA 95945",
    "Hours": "Call to confirm",
    "Latitude": 39.2281029,
    "Longitude": -121.0468913,
    "State": "California",
    "Phone": "(530) 274-6000"
  },
  {
    "Name": "Carbon Health",
    "Address": "2920 Telegraph Ave, Berkeley, CA 94705",
    "Hours": "9 am - 7 pm",
    "Latitude": 37.8569028,
    "Longitude": -122.2600272,
    "State": "California",
    "Phone": "(510) 686-3621"
  },
  {
    "Name": "Carbon Health",
    "Address": "411 Grand Ave, Oakland, CA 94610",
    "Hours": "8 am - 6 pm",
    "Latitude": 37.8085267,
    "Longitude": -122.2535429,
    "State": "California",
    "Phone": "(510) 844-4097"
  },
  {
    "Name": "UCLA Health",
    "Address": "757 Westwood Plaza, Los Angeles, CA 90095",
    "Hours": "24 hours\n UCLA is only testing patients who need hospitalization and have a history of travel to impacted countries or who have had contact with others who have tested positive for COVID-19.",
    "Latitude": 34.0664764,
    "Longitude": -118.4465738,
    "State": "California",
    "Phone": "(310) 825-9111"
  },
  {
    "Name": "Stanford Primary Care in Portola Valley",
    "Address": "3250 Alpine Rd, Portola Valley, CA 94028",
    "Hours": "8 am - 5 pm, Monday - Friday",
    "Latitude": 37.3990635,
    "Longitude": -122.1929315,
    "State": "California",
    "Phone": "(650) 736-1384"
  },
  {
    "Name": "Carbon Health",
    "Address": "55 Pacific Ave, San Francisco, CA 94111",
    "Hours": "Call to confirm",
    "Latitude": 37.797992,
    "Longitude": -122.3980774,
    "State": "California",
    "Phone": "(415) 200-2099"
  },
  {
    "Name": "Carbon Health",
    "Address": "1320 Travis Blvd, Suite C, Fairfield, CA 94533",
    "Hours": "11 am - 9 pm",
    "Latitude": 38.2584,
    "Longitude": -122.0506373,
    "State": "California",
    "Phone": "(707) 646-4000"
  },
  {
    "Name": "El Camino Health Urgent Care",
    "Address": "19600 Vallco Pkwy Ste 170, Cupertino, CA 95014",
    "Hours": "9 am - 7 pm",
    "Latitude": 37.3252875,
    "Longitude": -122.0119343,
    "State": "California",
    "Phone": "(650) 338-4776"
  },
  {
    "Name": "Menlo Medical Clinic",
    "Address": "321 Middlefield Rd., Menlo Park, CA 94025",
    "Hours": "8:30 am - 5:30 pm Monday - Friday; 8:30 am - 12:30 pm Saturday",
    "Latitude": 37.4562716,
    "Longitude": -122.1683519,
    "State": "California",
    "Phone": "(650) 498-6500"
  },
  {
    "Name": "UC San Francisco",
    "Address": "1600 Divisadero St, San Francisco, CA 94115",
    "Hours": "24 hours",
    "Latitude": 37.784695,
    "Longitude": -122.4392274,
    "State": "California",
    "Phone": "(415) 567-6600"
  },
  {
    "Name": "Menlo Medical Clinic",
    "Address": "1300 Crane Street, Menlo Park CA 94025",
    "Hours": "8:30 am - 5:30 pm Monday - Friday; 8:30 am - 12:30 pm Saturday",
    "Latitude": 37.4531251,
    "Longitude": -122.1874648,
    "State": "California",
    "Phone": "(650) 498-6500"
  },
  {
    "Name": "Stanford Medical Center",
    "Address": "300 Pasteur Dr, Stanford, CA 94305",
    "Hours": "24 hours",
    "Latitude": 37.4330746,
    "Longitude": -122.1750485,
    "State": "California",
    "Phone": "(650) 723-4000"
  },
  {
    "Name": "El Camino Health Urgent Care",
    "Address": "1150 West El Camino Real, Mountain View, CA 94040",
    "Hours": "9 am - 7 pm",
    "Latitude": 37.3880548,
    "Longitude": -122.0877361,
    "State": "California",
    "Phone": "(650) 695-5008",
    "Main Website": "https://carbonhealth.com/mountain-view",
    "Appointment Needed": "Yes"
  },
  {
    "Name": "UC San Francisco",
    "Address": "1825 4th St, San Francisco, CA 94158",
    "Hours": "24 hours",
    "Latitude": 37.7663741,
    "Longitude": -122.3901304,
    "State": "California",
    "Phone": "(415) 353-3000",
    "Main Website": "https://coronavirus.ucsf.edu/",
    "Appointment Needed": "Yes"
  },
  {
    "Name": "UC Davis Medical Center",
    "Address": "2315 Stockton Blvd, Sacramento, CA 95817",
    "Hours": "24 hours",
    "Latitude": 38.5549492,
    "Longitude": -121.4546344,
    "State": "California",
    "Phone": "(916) 734-2011",
    "Main Website": "https://health.ucdavis.edu/coronavirus/index.html",
    "Appointment Needed": "Yes"
  },
  {
    "Name": "NorthBay HealthCare - Vacaville",
    "Address": "1679 E Monte Vista Ave, Suite 104, Vacaville CA 95688",
    "Hours": "8 am - 5 pm Monday - Friday",
    "Latitude": 38.3700674,
    "Longitude": -121.9606114,
    "State": "California",
    "Phone": "(707) 624-5500",
    "Main Website": "https://www.northbay.org/about/Coronavirus-COVID-19.cfm",
    "Appointment Needed": "Yes"
  },
  {
    "Name": "Hartford Hospital",
    "Address": "560 Hudson St, Hartford, CT 06106; Education and Resource Center",
    "Hours": "9 am - 5 pm seven days a week",
    "Latitude": 41.755482,
    "Longitude": -72.677489,
    "State": "Connecticut",
    "Phone": "(860) 972-8100"
  },
  {
    "Name": "MidState Medical Center",
    "Address": "435 Lewis Ave, Meriden, CT 06451; Across from the main entrance",
    "Hours": "9 am - 5 pm seven days a week",
    "Latitude": 41.5493063,
    "Longitude": -72.8011451,
    "State": "Connecticut",
    "Phone": "(860) 972-8100"
  },
  {
    "Name": "Murphy Medical Associates",
    "Address": "2 Renshaw Road, Darien, CT 06820",
    "Hours": "7 am - 9 am Monday - Friday",
    "Latitude": 41.0664903,
    "Longitude": -73.4843581,
    "State": "Connecticut",
    "Phone": "(203) 658-6051"
  },
  {
    "Name": "St. Francis Hospital",
    "Address": "1000 Asylum AveHartford, CT 06105; Directly in front of the Gengras Building on the Saint Francis Hospital campus",
    "Hours": "8 am - 4 pm seven days a week",
    "Latitude": 41.7728057,
    "Longitude": -72.6987963,
    "State": "Connecticut",
    "Phone": "(860) 714-4000"
  },
  {
    "Name": "Johnson Memorial Hospital (Stafford)",
    "Address": "201 Chestnut Hill Rd, Stafford Springs, CT 06076; Directly in front of the Community Medical Education Center",
    "Hours": "9 am - 4 pm seven days a week",
    "Latitude": 41.9794231,
    "Longitude": -72.3914838,
    "State": "Connecticut",
    "Phone": "(317) 736-3300"
  },
  {
    "Name": "Greenwich Hospital",
    "Address": "5 Perryridge Rd, Greenwich, CT 06830",
    "Hours": "8 am - 5 pm Monday - Friday; 9 am - 3 pm Saturday - Sunday",
    "Latitude": 41.0344955,
    "Longitude": -73.6301985,
    "State": "Connecticut",
    "Phone": "(203) 863-3000"
  },
  {
    "Name": "Norwalk Hospital",
    "Address": "34 Maple St, Norwalk, CT 06856; Parking lot at the intersection of Stevens Street and Elmcrest Terrance",
    "Hours": "8:30 am - 3:30 pm Monday - Saturday",
    "Latitude": 41.1111249,
    "Longitude": -73.4222417,
    "State": "Connecticut",
    "Phone": "(203) 852-2000"
  },
  {
    "Name": "Saint Mary's Hospital",
    "Address": "56 Franklin St, Waterbury, CT 06706; Located at the lower level of the Visitor's Garage on Cole Street (Corner of East Elm)",
    "Hours": "9 am - 3 pm seven days a week",
    "Latitude": 41.5525708,
    "Longitude": -73.0364301,
    "State": "Connecticut",
    "Phone": "(203) 709-6000"
  },
  {
    "Name": "Bristol Hospital",
    "Address": "145 Queen St, Bristol, CT 06010; intersection of Queen St and Goodman St",
    "Hours": "8 am - 4 pm seven days a week",
    "Latitude": 41.6756801,
    "Longitude": -72.9373553,
    "State": "Connecticut",
    "Phone": "(860) 261-6855"
  },
  {
    "Name": "Murphy Medical Associates",
    "Address": "1000 Main St. Stratford, CT 06614",
    "Hours": "7 am - 9 am Monday - Friday",
    "Latitude": 41.1737099,
    "Longitude": -73.1289006,
    "State": "Connecticut",
    "Phone": "(203) 658-6051"
  },
  {
    "Name": "Murphy Medical Associates",
    "Address": "589 Bedford St. Stamford, CT 06901",
    "Hours": "7 am - 9 am Monday - Friday",
    "Latitude": 41.0591509,
    "Longitude": -73.5372121,
    "State": "Connecticut",
    "Phone": "(203) 658-6051"
  },
  {
    "Name": "Stamford Hospital",
    "Address": "One Hospital Plaza, Stamford, CT 06902",
    "Hours": "7 am - 7 pm seven days a week",
    "Latitude": 41.0556181,
    "Longitude": -73.5519519,
    "State": "Connecticut",
    "Phone": "(203) 276-4111"
  },
  {
    "Name": "Manchester Memorial Hospital",
    "Address": "71 Haynes St, Manchester, CT 06040",
    "Hours": "Testing at this location is by appointment only and requires a referral from a physician.",
    "Latitude": 41.7815772,
    "Longitude": -72.5260287,
    "State": "Connecticut",
    "Phone": "(860) 646-1222"
  },
  {
    "Name": "Bridgeport Hospital",
    "Address": "267 Grant St., Bridgeport, CT 06610",
    "Hours": "8 am - 5 pm Monday - Friday; 9 am - 3 pm Saturday",
    "Latitude": 41.1889873,
    "Longitude": -73.1664362,
    "State": "Connecticut",
    "Phone": "(203) 384-3000"
  },
  {
    "Name": "Charlotte Hungerford Hospital (Torrington)",
    "Address": "540 Litchfield St, Torrington, CT 06790; Adjacent to the outpatient entrance",
    "Hours": "9 am - 5 pm seven days a week",
    "Latitude": 41.792143,
    "Longitude": -73.133854,
    "State": "Connecticut",
    "Phone": "(860) 972-8100"
  },
  {
    "Name": "St. Vincentâ€™s Medical Center",
    "Address": "2979 Main St, Bridgeport, CT 06606; Across from the campus",
    "Hours": "9 am - 5 pm seven days a week",
    "Latitude": 41.2025484,
    "Longitude": -73.2045874,
    "State": "Connecticut",
    "Phone": "(860) 972-8100"
  },
  {
    "Name": "Backus Hospital",
    "Address": "326 Washington Street, Norwich, CT 06360; Main Parking Lot",
    "Hours": "9 am - 5 pm seven days a week",
    "Latitude": 41.5432439,
    "Longitude": -72.0889953,
    "State": "Connecticut",
    "Phone": "(860) 972-8100"
  },
  {
    "Name": "Danbury Hospital",
    "Address": "24 Hospital Ave, Danbury, CT 06810",
    "Hours": "8:30 am - 3:30 pm Monday - Saturday",
    "Latitude": 41.4050552,
    "Longitude": -73.444497,
    "State": "Connecticut",
    "Phone": "(203) 739-7000"
  },
  {
    "Name": "Yale New Haven Hospital Diagnostic Radiology",
    "Address": "150 Sargent Dr, New Haven, CT 06511",
    "Hours": "7 am - 7 pm, Monday - Saturday",
    "Latitude": 41.2926681,
    "Longitude": -72.9219715,
    "State": "Connecticut",
    "Phone": "(203) 688-1010"
  },
  {
    "Name": "Waterbury Hospital",
    "Address": "68 Robbins Street, Waterbury, CT 06708; Emergency Department Entrance",
    "Hours": "8 am - 4 pm seven days a week",
    "Latitude": 41.559422,
    "Longitude": -73.058838,
    "State": "Connecticut",
    "Phone": "(203) 575-5250"
  },
  {
    "Name": "Cummings Beach",
    "Address": "Shippan Ave, Stamford, CT 06902",
    "Latitude": 41.0354845,
    "Longitude": -73.5273922,
    "State": "Connecticut"
  },
  {
    "Name": "Lawrence and Memorial Hospital (New London)",
    "Address": "365 Montauk Ave, New London, CT 06320",
    "Hours": "Not available",
    "Latitude": 41.3363078,
    "Longitude": -72.1056047,
    "State": "Connecticut",
    "Phone": "(833) 275-9644"
  },
  {
    "Name": "Murphy Medical Associates",
    "Address": "564 South Ave. New Canaan, CT 06840",
    "Hours": "7 am - 9 am Monday - Friday",
    "Latitude": 41.1287835,
    "Longitude": -73.4847705,
    "State": "Connecticut",
    "Phone": "(203) 658-6051"
  },
  {
    "Name": "ChristianaCare - Wilmington Campus",
    "Address": "625 W 12th St, Wilmington, DE",
    "Hours": "10 am - 1 pm, Monday - Friday",
    "Latitude": 39.749985,
    "Longitude": -75.551342,
    "State": "Delaware",
    "Phone": "(302) 255-1000"
  },
  {
    "Name": "ChristianaCare - GoHealth Urgent Care",
    "Address": "200 Hygeia Drive, Newark, DE",
    "Hours": "8 am - 11 am, Monday - Friday",
    "Latitude": 39.6924956,
    "Longitude": -75.6750425,
    "State": "Delaware",
    "Phone": "(302) 273-1701"
  },
  {
    "Name": "West Palm Beach VA Medical Center",
    "Address": "305 N Military Trl, West Palm Beach, FL 33410",
    "Hours": "Open 24hrs",
    "Latitude": 26.6818468,
    "Longitude": -80.1122917,
    "State": "Florida",
    "Phone": "(561) 422-8262"
  },
  {
    "Name": "Premier Medical Associates",
    "Address": "1004 N 14th St, Leesburg, FL 34748",
    "Hours": "8:30am - 5pm, Monday - Friday",
    "Latitude": 28.8231345,
    "Longitude": -81.8869219,
    "State": "Florida",
    "Phone": "(352) 259-2159"
  },
  {
    "Name": "BayCare Urgent Care (Countryside)",
    "Address": "3351 N. McMullen-Booth Road, Clearwater, FL 33761",
    "Hours": "7am - 11pm, Monday - Friday",
    "Latitude": 28.0428127,
    "Longitude": -82.7085154,
    "State": "Florida",
    "Phone": "(727) 314-4774"
  },
  {
    "Name": "BayCare Urgent Care (Tampa)",
    "Address": "3440 W. Dr. MLK Jr. Blvd., Suite 100, Tampa, FL 33607",
    "Hours": "8am - 8pm, Monday - Saturday",
    "Latitude": 27.980877,
    "Longitude": -82.500401,
    "State": "Florida",
    "Phone": "(813) 559-1888"
  },
  {
    "Name": "Marathon Health Center",
    "Address": "2805 Overseas Hwy, Marathon, FL 33050",
    "Hours": "NOT OPEN YET. WILL OPEN WEEK OF 3/24.",
    "Latitude": 24.7098675,
    "Longitude": -81.098187,
    "State": "Florida",
    "Phone": "(305) 743-4000"
  },
  {
    "Name": "Cleveland Clinic Florida",
    "Address": "2950 Cleveland Clinic Blvd, Weston, FL 33331",
    "Hours": "8am - 5pm, Monday - Friday",
    "Latitude": 26.0817163,
    "Longitude": -80.3638858,
    "State": "Florida",
    "Phone": "(954) 659-595"
  },
  {
    "Name": "Krupa Center",
    "Address": "3250 Meridian Parkway Weston, Florida 33331",
    "Hours": "8am - 5pm, Monday - Friday",
    "Latitude": 26.0769425,
    "Longitude": -80.3673439,
    "State": "Florida",
    "Phone": "(954) 659-5951"
  },
  {
    "Name": "Main Health Department",
    "Address": "480 West Lowder Street Macclenny, FL 32063",
    "Hours": "8am - 5pm, Monday - Friday",
    "Latitude": 30.2719342,
    "Longitude": -82.1288178,
    "State": "Florida",
    "Phone": "(904) 259-6291"
  },
  {
    "Name": "Main Location - Ullman Building",
    "Address": "Health Department\n 597 West 11th Street Panama City, FL 32401",
    "Hours": "8am - 5pm, Monday - Friday",
    "Latitude": 30.1668144,
    "Longitude": -85.6668837,
    "State": "Florida",
    "Phone": "(850) 872-4455"
  },
  {
    "Name": "West Palm Beach-Health Department Main Office",
    "Address": "800 Clematis St. West Palm Beach, FL 33401",
    "Hours": "8am - 5pm, Monday - Friday",
    "Latitude": 26.7132682,
    "Longitude": -80.0599099,
    "State": "Florida",
    "Phone": "(855) 438-2778"
  },
  {
    "Name": "BayCare Urgent Care (Bloomingdale)",
    "Address": "2442 Bloomingdale Ave., Valrico, FL 33596",
    "Hours": "8am - 8pm, Monday - Saturday",
    "Latitude": 27.894543,
    "Longitude": -82.2411244,
    "State": "Florida",
    "Phone": "(813) 586-8686"
  },
  {
    "Name": "Florida Department of Health in Alachua - Main Site - Gainesville",
    "Address": "224 SE 24th Street Gainesville, FL 32641",
    "Hours": "8:00am to 5:00pm, Monday - Friday",
    "Latitude": 29.6493236,
    "Longitude": -82.2956049,
    "State": "Florida",
    "Phone": "(352) 334-7900"
  },
  {
    "Name": "BayCare Urgent Care (Haines City)",
    "Address": "36245 U.S. Highway 27, Haines City, FL 33844",
    "Hours": "8am - 8pm, Monday - Saturday",
    "Latitude": 28.1270787,
    "Longitude": -81.6385489,
    "State": "Florida",
    "Phone": "(813) 586-8686"
  },
  {
    "Name": "Main Health Department",
    "Address": "1105 E. Kennedy Blvd Tampa, FL 33602",
    "Hours": "8am - 5pm, Monday - Friday",
    "Latitude": 27.9499162,
    "Longitude": -82.450776,
    "State": "Florida",
    "Phone": "(813) 307-8000"
  },
  {
    "Name": "St. Vincent's Hospital",
    "Address": "1 Shircliff Way, Jacksonville, FL 32204",
    "Hours": "Open 24hrs",
    "Latitude": 30.3071111,
    "Longitude": -81.6900767,
    "State": "Florida",
    "Phone": "(904) 308-7300"
  },
  {
    "Name": "Memorial Healthcare System",
    "Address": "3501 Johnson St, Hollywood, FL 33021",
    "Hours": "Open 24hrs",
    "Latitude": 26.0195318,
    "Longitude": -80.179802,
    "State": "Florida",
    "Phone": "(954) 987-2000"
  },
  {
    "Name": "Premier Medical Associates",
    "Address": "25327 US-27 SUITE 204-205, Leesburg, FL 34748",
    "Hours": "8:30am - 5pm, Monday - Friday",
    "Latitude": 28.7167131,
    "Longitude": -81.862005,
    "State": "Florida",
    "Phone": "(352) 259-2159"
  },
  {
    "Name": "Broward Health",
    "Address": "Pompano Beach",
    "Hours": "8am - 5pm, Monday - Friday",
    "Latitude": 26.2378597,
    "Longitude": -80.1247667,
    "State": "Florida",
    "Phone": "(954) 320-5730"
  },
  {
    "Name": "FoundCare",
    "Address": "2330 S Congress Ave, West Palm Beach, FL 33406",
    "Hours": "THIS SITE IS NOT ACCEPTING NEW APPOINTMENTS UNTIL APRIL 10th.",
    "Latitude": 26.6417485,
    "Longitude": -80.0875828,
    "State": "Florida",
    "Phone": "(561) 432-5849"
  },
  {
    "Name": "Miami VA Medical Center",
    "Address": "1201 NW 16th St, FL 33125",
    "Hours": "Open 24hrs",
    "Latitude": 25.7909495,
    "Longitude": -80.2166357,
    "State": "Florida",
    "Phone": "(305) 575-7000"
  },
  {
    "Name": "Cleveland Clinic - Martin Health",
    "Address": "200 SE Hospital Ave, Stuart, FL 34994",
    "Hours": "8am - 5pm, Monday - Friday",
    "Latitude": 27.1992955,
    "Longitude": -80.2432645,
    "State": "Florida",
    "Phone": "(772) 419-3360"
  },
  {
    "Name": "Premier Medical Associates",
    "Address": "1800 SE 17th St, Ocala, FL 34471",
    "Hours": "8:30am - 5pm, Monday - Friday",
    "Latitude": 29.1711202,
    "Longitude": -82.1131725,
    "State": "Florida",
    "Phone": "(352) 259-2159"
  },
  {
    "Name": "Doris Ison Health Center",
    "Address": "10300 SW 216th St., Miami, FL 33190",
    "Hours": "9am - 12pm, Monday - Friday",
    "Latitude": 25.5653817,
    "Longitude": -80.3576855,
    "State": "Florida",
    "Phone": "(305) 252-4820"
  },
  {
    "Name": "Premier Medical Associates",
    "Address": "1580 Santa Barbara Blvd, The Villages, FL 32159",
    "Hours": "8:30am - 5pm, Monday - Friday",
    "Latitude": 28.9515977,
    "Longitude": -81.9625589,
    "State": "Florida",
    "Phone": "(352) 259-2159"
  },
  {
    "Name": "Larkin Community Hospital",
    "Address": "1475 West 49th Place, Hialeah, FL 33012",
    "Hours": "9am-5pm, Daily",
    "Latitude": 25.8690179,
    "Longitude": -80.3128235,
    "State": "Florida",
    "Phone": "(305) 558-2500"
  },
  {
    "Name": "New River Health",
    "Address": "1801 N. Temple Avenue Starke, FL 32091",
    "Hours": "7:30am - 5:30pm, Monday - Friday",
    "Latitude": 29.9639503,
    "Longitude": -82.1061109,
    "State": "Florida",
    "Phone": "(904) 964-7732"
  },
  {
    "Name": "BayCare Urgent Care (New Port Richey)",
    "Address": "4821 U.S. Highway 19, New Port Richey, FL 34652",
    "Hours": "8am - 8pm, Monday - Saturday",
    "Latitude": 28.2294363,
    "Longitude": -82.7324181,
    "State": "Florida",
    "Phone": "(813) 586-8686"
  },
  {
    "Name": "Premier Medical Associates",
    "Address": "910 Old Camp Rd Suite 130, The Villages, FL 32162",
    "Hours": "8:30am - 5pm, Monday - Friday",
    "Latitude": 28.9057889,
    "Longitude": -81.9724675,
    "State": "Florida",
    "Phone": "(352) 259-2159"
  },
  {
    "Name": "BayCare Urgent Care (New Tampa)",
    "Address": "17512 Dona Michelle Drive, Suite 5, Tampa, FL 33647",
    "Hours": "8am - 8pm, Monday - Saturday",
    "Latitude": 28.1262702,
    "Longitude": -82.3711665,
    "State": "Florida",
    "Phone": "(813) 533-3494"
  },
  {
    "Name": "Main Office - Viera Clinic",
    "Address": "2555 Judge Fran Jamieson Way Viera, FL 32940",
    "Hours": "8am - 5pm, Monday - Friday",
    "Latitude": 28.2470154,
    "Longitude": -80.7322688,
    "State": "Florida",
    "Phone": "(321) 639-5800"
  },
  {
    "Name": "BayCare Urgent Care (Carillon)",
    "Address": "900 Carillon Parkway, Suite. 106, St. Petersburg, FL 33716",
    "Hours": "8am - 8pm, Monday - Saturday",
    "Latitude": 27.8929763,
    "Longitude": -82.6671928,
    "State": "Florida",
    "Phone": "(813) 586-8686"
  },
  {
    "Name": "Page Field Convenient Care",
    "Address": "4771 S Cleveland Ave, Fort Myers, FL 33907",
    "Hours": "7am - 7pm, Monday - Friday",
    "Latitude": 26.5918877,
    "Longitude": -81.871373,
    "State": "Florida",
    "Phone": "(239) 343-9800"
  },
  {
    "Name": "AdventHealth Centra Care Daytona",
    "Address": "AdventHealth Centra Care Daytona\n 1014 West International Speedway Boulevard, Daytona, FL 32114",
    "Latitude": 29.2027847,
    "Longitude": -81.0423496,
    "State": "Florida",
    "Phone": "386-872-5044",
    "Main Website": "https://centracare.adventhealth.com/urgent-care/daytona",
    "Appointment Needed": "Yes"
  },
  {
    "Name": "AdventHealth Centra Care DeLand",
    "Address": "AdventHealth Centra Care DeLand\n 2293 South Woodland Boulevard, DeLand, FL 32720",
    "Latitude": 28.9881947,
    "Longitude": -81.2997869,
    "State": "Florida",
    "Phone": "386-279-7010",
    "Main Website": "https://centracare.adventhealth.com/urgent-care/deland",
    "Appointment Needed": "Yes"
  },
  {
    "Name": "AdventHealth Centra Care Dr. Phillip's",
    "Address": "AdventHealth Centra Care Dr. Phillip's\n 8014 Conroy-Windermere Road, Suite 104, Orlando, FL 32835",
    "Latitude": 28.493147,
    "Longitude": -81.492222,
    "State": "Florida",
    "Phone": "407-291-8975",
    "Main Website": "https://centracare.adventhealth.com/urgent-care/dr-phillips",
    "Appointment Needed": "Yes"
  },
  {
    "Name": "AdventHealth Centra Care Hunter's Creek",
    "Address": "AdventHealth Centra Care Hunter's Creek\n 3293 Greenwald Way North, Kissimmee, FL 34741",
    "Latitude": 28.3475,
    "Longitude": -81.41897,
    "State": "Florida",
    "Phone": "407-847-2796",
    "Main Website": "https://centracare.adventhealth.com/urgent-care/hunters-creek",
    "Appointment Needed": "Yes"
  },
  {
    "Name": "AdventHealth Centra Care Kissimmee",
    "Address": "AdventHealth Centra Care Kissimmee\n 4320 West Vine Street, Kissimmee, FL 34746",
    "Latitude": 28.303348,
    "Longitude": -81.454044,
    "State": "Florida",
    "Phone": "407-390-1888",
    "Main Website": "https://centracare.adventhealth.com/urgent-care/kissimmee",
    "Appointment Needed": "Yes"
  },
  {
    "Name": "AdventHealth Centra Care Lake Buena Vista",
    "Address": "AdventHealth Centra Care Lake Buena Vista\n 12500 South Apopka Vineland Road, Orlando, FL 32836",
    "Latitude": 28.3830668,
    "Longitude": -81.5070452,
    "State": "Florida",
    "Phone": "407-934-2273",
    "Main Website": "https://centracare.adventhealth.com/urgent-care/lake-buena-vista",
    "Appointment Needed": "Yes"
  },
  {
    "Name": "AdventHealth Centra Care Lake Mary",
    "Address": "AdventHealth Centra Care Lake Mary\n 2948 West Lake Mary Boulevard, Lake Mary, FL 32746",
    "Latitude": 28.7566135,
    "Longitude": -81.331011,
    "State": "Florida",
    "Phone": "407-732-7478",
    "Main Website": "https://centracare.adventhealth.com/urgent-care/lake-mary",
    "Appointment Needed": "Yes"
  },
  {
    "Name": "AdventHealth Centra Care Lake Nona",
    "Address": "AdventHealth Centra Care Lake Nona\n 9637 Lake Nona Village Place, Orlando, FL 32827",
    "Latitude": 28.4261037,
    "Longitude": -81.2542655,
    "State": "Florida",
    "Phone": "407-723-1365",
    "Main Website": "https://centracare.adventhealth.com/urgent-care/lake-nona",
    "Appointment Needed": "Yes"
  },
  {
    "Name": "AdventHealth Centra Care Lee Road",
    "Address": "AdventHealth Centra Care Lee Road\n 2540 Lee Road, Winter Park, FL 32789",
    "Latitude": 28.605389,
    "Longitude": -81.383025,
    "State": "Florida",
    "Phone": "407-629-9281",
    "Main Website": "https://centracare.adventhealth.com/urgent-care/lee-road",
    "Appointment Needed": "Yes"
  },
  {
    "Name": "AdventHealth Centra Care Leesburg",
    "Address": "AdventHealth Centra Care Leesburg\n 1103 North 14th Street, Leesburg, FL 34748",
    "Latitude": 28.8258059,
    "Longitude": -81.8878946,
    "State": "Florida",
    "Phone": "352-314-2328",
    "Main Website": "https://centracare.adventhealth.com/urgent-care/leesburg",
    "Appointment Needed": "Yes"
  },
  {
    "Name": "AdventHealth Centra Care Longwood",
    "Address": "AdventHealth Centra Care Longwood\n 855 South US Highway 17-92, Longwood, FL 32750",
    "Latitude": 28.6929003,
    "Longitude": -81.3269197,
    "State": "Florida",
    "Phone": "407-699-8400",
    "Main Website": "https://centracare.adventhealth.com/urgent-care/longwood",
    "Appointment Needed": "Yes"
  },
  {
    "Name": "AdventHealth Centra Care Mt. Dora",
    "Address": "AdventHealth Centra Care Mt. Dora\n 19015 US Highway 441, Mount Dora, FL 32757",
    "Latitude": 28.8246419,
    "Longitude": -81.6411226,
    "State": "Florida",
    "Phone": "352-383-3484",
    "Main Website": "https://centracare.adventhealth.com/urgent-care/mount-dora",
    "Appointment Needed": "Yes"
  },
  {
    "Name": "AdventHealth Centra Care Orange City",
    "Address": "AdventHealth Centra Care Orange City\n 1360 Saxon Boulevard, Orange City, FL 32763",
    "Latitude": 28.9104721,
    "Longitude": -81.2746643,
    "State": "Florida",
    "Phone": "386-917-0074",
    "Main Website": "https://centracare.adventhealth.com/urgent-care/orange-city",
    "Appointment Needed": "Yes"
  },
  {
    "Name": "AdventHealth Centra Care Orange Lake",
    "Address": "AdventHealth Centra Care Orange Lake\n 8201 West Irlo Bronson Highway, Kissimmee, FL 34747",
    "Latitude": 28.347701,
    "Longitude": -81.613935,
    "State": "Florida",
    "Phone": "407-465-0846",
    "Main Website": "https://centracare.adventhealth.com/urgent-care/orange-lake",
    "Appointment Needed": "Yes"
  },
  {
    "Name": "AdventHealth Centra Care Ormond Beach",
    "Address": "AdventHealth Centra Care Ormond Beach\n 1245 West Granada Boulevard, Ormond Beach, FL 32174",
    "Latitude": 29.2661518,
    "Longitude": -81.1045443,
    "State": "Florida",
    "Phone": "386-317-9055",
    "Main Website": "https://centracare.adventhealth.com/urgent-care/ormond-beach",
    "Appointment Needed": "Yes"
  },
  {
    "Name": "AdventHealth Centra Care Oviedo",
    "Address": "AdventHealth Centra Care Oviedo\n 8010 Red Bug Lake Road, Oviedo, FL 32765",
    "Latitude": 28.6569671,
    "Longitude": -81.2399621,
    "State": "Florida",
    "Phone": "407-200-2512",
    "Main Website": "https://centracare.adventhealth.com/urgent-care/oviedo",
    "Appointment Needed": "Yes"
  },
  {
    "Name": "AdventHealth Centra Care Palm Coast",
    "Address": "AdventHealth Centra Care Palm Coast\n 1270 Palm Coast Parkway Northwest, Palm Coast, FL 32137",
    "Latitude": 29.5539016,
    "Longitude": -81.2329556,
    "State": "Florida",
    "Phone": "386-225-4631",
    "Main Website": "https://centracare.adventhealth.com/urgent-care/palm-coast",
    "Appointment Needed": "Yes"
  },
  {
    "Name": "AdventHealth Centra Care Poinciana",
    "Address": "AdventHealth Centra Care Poinciana\n 3759 Pleasant Hill Road, Kissimmee, FL 34746",
    "Latitude": 28.1842956,
    "Longitude": -81.4385937,
    "State": "Florida",
    "Phone": "863-419-2723",
    "Main Website": "https://centracare.adventhealth.com/urgent-care/poinciana",
    "Appointment Needed": "Yes"
  },
  {
    "Name": "AdventHealth Centra Care Port Orange",
    "Address": "AdventHealth Centra Care Port Orange\n 1208 Dunlawton Avenue, Port Orange, FL 32127",
    "Latitude": 29.1232267,
    "Longitude": -81.0111877,
    "State": "Florida",
    "Phone": "386-304-7320",
    "Main Website": "https://centracare.adventhealth.com/urgent-care/port-orange",
    "Appointment Needed": "Yes"
  },
  {
    "Name": "AdventHealth Centra Care Sand Lake Road",
    "Address": "AdventHealth Centra Care Sand Lake Road\n 2301 Sand Lake Road, Orlando, FL 32809",
    "Latitude": 28.451105,
    "Longitude": -81.412741,
    "State": "Florida",
    "Phone": "407-851-6478",
    "Main Website": "https://centracare.adventhealth.com/urgent-care/sand-lake",
    "Appointment Needed": "Yes"
  },
  {
    "Name": "AdventHealth Centra Care Sanford",
    "Address": "AdventHealth Centra Care Sanford\n 4451 West 1st Street, Sanford, FL 32771",
    "Latitude": 28.811103,
    "Longitude": -81.329997,
    "State": "Florida",
    "Phone": "407-330-3412",
    "Main Website": "https://centracare.adventhealth.com/urgent-care/sanford",
    "Appointment Needed": "Yes"
  },
  {
    "Name": "AdventHealth Centra Care South Orange",
    "Address": "AdventHealth Centra Care South Orange\n 2609 South Orange Avenue, Orlando, FL 32806",
    "Latitude": 28.5135702,
    "Longitude": -81.3760542,
    "State": "Florida",
    "Phone": "407-914-2926",
    "Main Website": "https://centracare.adventhealth.com/urgent-care/south-orange",
    "Appointment Needed": "Yes"
  },
  {
    "Name": "AdventHealth Centra Care South Tampa",
    "Address": "AdventHealth Centra Care South Tampa\n 301 North Dale Mabry Highway, Tampa, FL 33609",
    "Latitude": 27.947591,
    "Longitude": -82.505273,
    "State": "Florida",
    "Phone": "813-284-0985,",
    "Main Website": "https://centracare.adventhealth.com/urgent-care/south-tampa",
    "Appointment Needed": "Yes"
  },
  {
    "Name": "AdventHealth Centra Care St. Cloud",
    "Address": "AdventHealth Centra Care St. Cloud\n 4660 13th Street, Saint Cloud, FL 34769",
    "Latitude": 28.2566303,
    "Longitude": -81.320279,
    "State": "Florida",
    "Phone": "321-805-4650",
    "Main Website": "https://centracare.adventhealth.com/urgent-care/st-cloud",
    "Appointment Needed": "Yes"
  },
  {
    "Name": "AdventHealth Centra Care Temple Terrace",
    "Address": "AdventHealth Centra Care Temple Terrace\n 5802 East Fowler Avenue, Temple Terrace, FL 33617",
    "Latitude": 28.0548375,
    "Longitude": -82.3912267,
    "State": "Florida",
    "Phone": "813-442-7493",
    "Main Website": "https://centracare.adventhealth.com/urgent-care/temple-terrace",
    "Appointment Needed": "Yes"
  },
  {
    "Name": "AdventHealth Centra Care University",
    "Address": "AdventHealth Centra Care University\n 11550 University Boulevard, Orlando, FL 32817",
    "Latitude": 28.597214,
    "Longitude": -81.220011,
    "State": "Florida",
    "Phone": "407-384-0080",
    "Main Website": "https://centracare.adventhealth.com/urgent-care/university",
    "Appointment Needed": "Yes"
  },
  {
    "Name": "AdventHealth Centra Care Waterford Lakes",
    "Address": "AdventHealth Centra Care Waterford Lakes\n 250 North Alafaya Trail, Suite 135, Orlando, FL 32825",
    "Latitude": 28.5483252,
    "Longitude": -81.2044651,
    "State": "Florida",
    "Phone": "407-381-4810",
    "Main Website": "https://centracare.adventhealth.com/urgent-care/waterford-lakes",
    "Appointment Needed": "Yes"
  },
  {
    "Name": "AdventHealth Centra Care Wesley Chapel",
    "Address": "AdventHealth Centra Care Wesley Chapel\n 1127 Bruce B Downs Boulevard, Wesley Chapel, FL 33543",
    "Latitude": 28.1726668,
    "Longitude": -82.3543013,
    "State": "Florida",
    "Phone": "813-536-1865",
    "Main Website": "https://centracare.adventhealth.com/urgent-care/wesley-chapel",
    "Appointment Needed": "Yes"
  },
  {
    "Name": "AdventHealth Centra Care Winter Garden",
    "Address": "AdventHealth Centra Care Winter Garden\n 3005 Daniels Road, Winter Garden, FL 34787",
    "Latitude": 28.525358,
    "Longitude": -81.584791,
    "State": "Florida",
    "Phone": "407-654-8186",
    "Main Website": "https://centracare.adventhealth.com/urgent-care/winter-garden",
    "Appointment Needed": "Yes"
  },
  {
    "Name": "AdventHealth Centra Care Winter Haven",
    "Address": "AdventHealth Centra Care Winter Haven\n 7375 Cypress Gardens Boulevard, Winter Haven, FL 33884",
    "Latitude": 27.9790833,
    "Longitude": -81.6532833,
    "State": "Florida",
    "Phone": "863-325-8185",
    "Main Website": "https://centracare.adventhealth.com/urgent-care/winter-haven",
    "Appointment Needed": "Yes"
  },
  {
    "Name": "AdventHealth Centra Care Winter Park",
    "Address": "AdventHealth Centra Care Winter Park\n 3099 Aloma Avenue, Winter Park, FL 32792",
    "Latitude": 28.604812,
    "Longitude": -81.307905,
    "State": "Florida",
    "Phone": "407-951-6302",
    "Main Website": "https://centracare.adventhealth.com/urgent-care/winter-park",
    "Appointment Needed": "Yes"
  },
  {
    "Name": "Tomsich Health and Medical Center of Palm Beach County.",
    "Address": "Tomsich Health and Medical Center of Palm Beach County. 525 Okeechobee Blvd., Rosemary Square, 14th Floor, West Palm Beach, Florida 33401",
    "Latitude": 26.7065972,
    "Longitude": -80.056343,
    "State": "Florida",
    "Phone": "855-697-3750, 561.804.0200",
    "Main Website": "https://my.clevelandclinic.org/locations/directions/202-tomsich-health-and-medical-center-of-palm-beach-county",
    "Appointment Needed": "Yes"
  },
  {
    "Name": "Cleveland Clinic Florida",
    "Address": "Cleveland Clinic Florida\n 2950 Cleveland Clinic Blvd., Weston, Florida 33331",
    "Latitude": 26.0817288,
    "Longitude": -80.3649907,
    "State": "Florida",
    "Phone": "954.659.5000, 855-697-3750",
    "Main Website": "https://my.clevelandclinic.org/locations/directions/203-cleveland-clinic-florida",
    "Appointment Needed": "Yes"
  },
  {
    "Name": "Parkland",
    "Address": "Parkland\n 7857 N. University Dr., Suite 401, Parkland, Florida 33067",
    "Latitude": 26.3285159,
    "Longitude": -80.2523747,
    "State": "Florida",
    "Phone": "855-697-3750, 954.518.7000",
    "Main Website": "https://my.clevelandclinic.org/locations/directions/220-parkland",
    "Appointment Needed": "Yes"
  },
  {
    "Name": "Palm Beach Gardens",
    "Address": "Palm Beach Gardens\n 4520 Donald Ross Rd. Suite 200, Palm Beach Gardens, Florida 33418",
    "Latitude": 26.8814089,
    "Longitude": -80.104863,
    "State": "Florida",
    "Phone": "855-697-3750, 561.904.7200",
    "Main Website": "https://my.clevelandclinic.org/locations/directions/232-palm-beach-gardens",
    "Appointment Needed": "Yes"
  },
  {
    "Name": "Cleveland Clinic Florida Wellington",
    "Address": "Cleveland Clinic Florida Wellington\n 2789 S. State Road 7, Suites 100/200, Wellington, Florida 33414",
    "Latitude": 26.6387183,
    "Longitude": -80.20555,
    "State": "Florida",
    "Phone": "855-697-3750, 561.898.5100",
    "Main Website": "https://my.clevelandclinic.org/locations/directions/480-cleveland-clinic-florida-wellington",
    "Appointment Needed": "Yes"
  },
  {
    "Name": "Coral Springs Family Health Center",
    "Address": "Coral Springs Family Health Center\n 5701 North University Drive, Coral Springs, Florida 33067",
    "Latitude": 26.3002605,
    "Longitude": -80.2491836,
    "State": "Florida",
    "Phone": "855-697-3750, 954.518.7500",
    "Main Website": "https://my.clevelandclinic.org/locations/directions/504-coral-springs-family-health-center",
    "Appointment Needed": "Yes"
  },
  {
    "Name": "Martin Health at Palm City",
    "Address": "Martin Health at Palm City\n 3066 SW Martin Downs Blvd., Palm City, Florida 34990",
    "Latitude": 27.1708698,
    "Longitude": -80.2944775,
    "State": "Florida",
    "Phone": "855-697-3750",
    "Main Website": "https://my.clevelandclinic.org/locations/directions/553-martin-health-at-palm-city",
    "Appointment Needed": "Yes"
  },
  {
    "Name": "SGMC Urgent Care",
    "Address": "4280 North Valdosta Road Valdosta, GA 31602",
    "Hours": "9am - 8pm, Monday - Sunday",
    "Latitude": 30.8981862,
    "Longitude": -83.3357181,
    "State": "Georgia",
    "Phone": "(229) 433-8200"
  },
  {
    "Name": "Oconee Health Campus",
    "Address": "1305 Jennings Mill Road, Watkinsville, GA 30677",
    "Hours": "9 a.m. - 3 p.m.",
    "Latitude": 33.915664,
    "Longitude": -83.4645048,
    "State": "Georgia",
    "Phone": "(866) 460-1119"
  },
  {
    "Name": "Jim Miller Park",
    "Address": "2245 Callaway Rd SW, Marietta, GA 30008",
    "Hours": "Call to confirm",
    "Latitude": 33.8987756,
    "Longitude": -84.5907024,
    "State": "Georgia",
    "Phone": "(844) 442-2681"
  },
  {
    "Name": "Queenâ€™s North Hawaii Community Hospital",
    "Address": "67-1125 Mamalahoa Highway, Kamuela, Hawaii 96743",
    "Hours": "10am - 2pm, Mondays, Tuesdays and Thursdays",
    "Latitude": 20.0232419,
    "Longitude": -155.6653736,
    "State": "Hawaii",
    "Phone": "(808) 885-4444"
  },
  {
    "Name": "Walgreens",
    "Address": "46-021 Kamehameha Hwy Kaneohe, HI 96744",
    "Hours": "Not specified at this time.",
    "Latitude": 21.419389,
    "Longitude": -157.8021829,
    "State": "Hawaii",
    "Phone": "(808) 234-1490"
  },
  {
    "Name": "St. Luke's Multispecialty Clinic: Ketchum",
    "Address": "100 Hospital Dr, Ketchum, ID 83340",
    "Hours": "Open 24 hrs",
    "Latitude": 43.6485714,
    "Longitude": -114.3494597,
    "State": "Idaho",
    "Phone": "(208) 381-9500"
  },
  {
    "Name": "St. Luke's Meridian Medical Center",
    "Address": "520 S Eagle Rd, Meridian, ID 83642",
    "Hours": "Open 24 hrs",
    "Latitude": 43.5995289,
    "Longitude": -116.352618,
    "State": "Idaho",
    "Phone": "(208) 381-9500"
  },
  {
    "Name": "Saint Alphonsus",
    "Address": "3025 W Cherry Ln B, Meridian, ID 83642",
    "Hours": "8am-8pm, Daily",
    "Latitude": 43.6185905,
    "Longitude": -116.4306295,
    "State": "Idaho",
    "Phone": "(208) 381-9500"
  },
  {
    "Name": "Saltzer Healthâ€™s North Nampa Urgent Care",
    "Address": "9850 W. St. Lukeâ€™s Drive Nampa, ID 83687",
    "Hours": "8am-8pm, Daily",
    "Latitude": 43.6182142,
    "Longitude": -116.5902083,
    "State": "Idaho",
    "Phone": "(208) 463-3000"
  },
  {
    "Name": "Saltzer Healthâ€™s South Nampa Urgent Care",
    "Address": "215 E. Hawaii Ave Nampa, ID 83686",
    "Hours": "8am-8pm, Daily",
    "Latitude": 43.5546194,
    "Longitude": -116.570825,
    "State": "Idaho",
    "Phone": "(208) 463-3000"
  },
  {
    "Name": "Advocate Good Shepherd Hospital",
    "Address": "450 W Highway 22, Barrington, IL 60010",
    "Hours": "Open 24hrs",
    "Latitude": 42.1956043,
    "Longitude": -88.1732048,
    "State": "Illinois",
    "Phone": "(847) 381-0123"
  },
  {
    "Name": "HSHS St. Johnâ€™s",
    "Address": "800 E Carpenter St, Springfield, IL 62769",
    "Hours": "Open 24hrs",
    "Latitude": 39.8046865,
    "Longitude": -89.6459353,
    "State": "Illinois",
    "Phone": "(217) 544-6464"
  },
  {
    "Name": "Advocate Christ Medical Center",
    "Address": "4440 W 95th St, Oak Lawn, IL 60453",
    "Hours": "NOT YET OPERATIONAL. PROJECTED FOR END OF WEEK.",
    "Latitude": 41.721808,
    "Longitude": -87.7326182,
    "State": "Illinois",
    "Phone": "(866) 443-2584"
  },
  {
    "Name": "Respiratory Clinic at DMH ExpressCare East",
    "Address": "4455 E. U.S. 36, Decatur, IL 62521",
    "Hours": "8am-6pm, 7 days per week",
    "Latitude": 39.8222296,
    "Longitude": -88.8863963,
    "State": "Illinois",
    "Phone": "(217) 876-1200"
  },
  {
    "Name": "Walmart (Parking Lot)",
    "Address": "137 W North Ave, Northlake, IL 60164",
    "Hours": "Not Open Yet",
    "Latitude": 41.90645,
    "Longitude": -87.9415806,
    "State": "Illinois"
  },
  {
    "Name": "Express Care",
    "Address": "2400 N Ashland Avenue Chicago, IL 60614",
    "Hours": "8am - 8pm, Monday - Friday; 9pm - 5pm, Saturday - Sunday",
    "Latitude": 41.9253097,
    "Longitude": -87.6684047,
    "State": "Illinois",
    "Phone": "(773) 270-5600"
  },
  {
    "Name": "Advocate Medical Group Outpatient Center",
    "Address": "2285 Sequoia Dr Aurora, IL 60506",
    "Hours": "NOT YET OPERATIONAL. PROJECTED FOR END OF WEEK.",
    "Latitude": 41.7936298,
    "Longitude": -88.3680185,
    "State": "Illinois",
    "Phone": "(630) 859-6700"
  },
  {
    "Name": "Respiratory Clinic at Memorial Physician Services",
    "Address": "2950 South Sixth Street, Springfield, IL 62703",
    "Hours": "8am-8pm, 7 days per week",
    "Latitude": 39.7619461,
    "Longitude": -89.6473265,
    "State": "Illinois",
    "Phone": "(217) 588-4019"
  },
  {
    "Name": "Swedish Hospital",
    "Address": "5140 N California Ave, Chicago, IL 60625",
    "Hours": "Open 24hrs",
    "Latitude": 41.9753019,
    "Longitude": -87.6994813,
    "State": "Illinois",
    "Phone": "(773) 878-8200"
  },
  {
    "Name": "Advocate Good Shepherd Hospital",
    "Address": "450 W Highway 22, Barrington, IL 60010",
    "Hours": "Open 24hrs",
    "Latitude": 42.1956043,
    "Longitude": -88.1732048,
    "State": "Illinois",
    "Phone": "(847) 381-0123"
  },
  {
    "Name": "NorthShore University HealthSystem",
    "Address": "1729 Benson Ave, Evanston, IL 60201",
    "Hours": "Open 24hrs",
    "Latitude": 42.0495925,
    "Longitude": -87.6830408,
    "State": "Illinois",
    "Phone": "(847) 570-7170"
  },
  {
    "Name": "Advocate Lutheran General in Park Ridge",
    "Address": "1775 Dempster Street, Park Ridge, IL 60068",
    "Hours": "Open 24hrs",
    "Latitude": 42.0384783,
    "Longitude": -87.847611,
    "State": "Illinois",
    "Phone": "(847) 723-2210"
  },
  {
    "Name": "Advocate Medical Group Outpatient Center",
    "Address": "2285 Sequoia Dr Aurora, IL 60506",
    "Hours": "NOT YET OPERATIONAL. PROJECTED FOR END OF WEEK.",
    "Latitude": 41.7936298,
    "Longitude": -88.3680185,
    "State": "Illinois",
    "Phone": "(630) 859-6700"
  },
  {
    "Name": "Deaconess Midtown Hospital",
    "Address": "600 Mary St, Evansville, IN 47710",
    "Hours": "Open 24hrs",
    "Latitude": 37.9830836,
    "Longitude": -87.5712565,
    "State": "Indiana",
    "Phone": "(812) 450-5000"
  },
  {
    "Name": "Eli Lilly and Company Corporate Center",
    "Address": "893 Delaware St, Indianapolis, IN 46225",
    "Hours": "8am-6pm, Monday - Friday",
    "Latitude": 39.7559098,
    "Longitude": -86.1531573,
    "State": "Indiana",
    "Phone": "(800) 630-6939"
  },
  {
    "Name": "Sharon Lee Family Health Clinic",
    "Address": "340 Southwest Blvd Kansas City, KS 66103",
    "Hours": "8am-8pm, Daily",
    "Latitude": 39.0682721,
    "Longitude": -94.6134431,
    "State": "Kansas",
    "Phone": "(913) 396-7070"
  },
  {
    "Name": "Bluegrass Extended Care Medicine",
    "Address": "989 Governors Ln UNIT 180, Lexington, KY 40513",
    "Hours": "8am - 5pm, Monday - Friday",
    "Latitude": 38.0194562,
    "Longitude": -84.5570253,
    "State": "Kentucky",
    "Phone": "(859) 338-3958"
  },
  {
    "Name": "Integrity Extended Healthcare",
    "Address": "124 Daniel Drive, Danville, Kentucky 40422",
    "Hours": "8am-4:30pm, Monday - Friday",
    "Latitude": 37.6201849,
    "Longitude": -84.7634039,
    "State": "Kentucky",
    "Phone": "(606) 303-4389"
  },
  {
    "Name": "St. Elizabeth Hospital",
    "Address": "17609 Old Jefferson Hwy B, Prairieville, LA 70769",
    "Hours": "8:00 a.m. - 5:00 p.m., Monday - Thursday; 8:00 a.m. - 4:30 p.m. Fridays",
    "Latitude": 30.3248318,
    "Longitude": -90.9784842,
    "State": "Louisiana",
    "Phone": "(225) 673-0205"
  },
  {
    "Name": "OUR LADY OF THE LAKE",
    "Address": "1125 Hwy. 30 W Gonzales, LA 70737",
    "Hours": "Testing at this site is by appointment only and is only for patients in the Lake Health System. Those who wish to be tested must call the phone number listed to get a referral from a doctor.",
    "Latitude": 30.2098401,
    "Longitude": -90.9318357,
    "State": "Louisiana",
    "Phone": "(225) 765-5500"
  },
  {
    "Name": "Common Ground Health Clinic - Algiers",
    "Address": "1400 Teche Street, New Orleans, LA 70114",
    "Hours": "8:00 am - 4:00 pm",
    "Latitude": 29.9410979,
    "Longitude": -90.0516889,
    "State": "Louisiana",
    "Phone": "(504) 361-9800",
    "Main Website": "https://cghcnola.org/",
    "Appointment Needed": "Yes"
  },
  {
    "Name": "The Iowa Clinic - West Des Moines Campus",
    "Address": "5950 University Avenue, West Des Moines, IA 50266",
    "Hours": "8am-4pm, Monday - Friday",
    "Latitude": 41.5987441,
    "Longitude": -93.792489,
    "State": "Lowa",
    "Phone": "(515) 875-9268"
  },
  {
    "Name": "North Iowa Event Center (MercyOne North Iowa)",
    "Address": "3700 4th St SW, Mason City, IA 50401",
    "Hours": "9am-5pm, Monday-Friday. This testing site if only for those who have been pre-screened and referred. You must contact the COVID-19 call center at (641) 494-3543, (641) 494-3546 or (641) 494-3547",
    "Latitude": 43.150421,
    "Longitude": -93.2580214,
    "State": "Lowa",
    "Phone": "(641) 494-3543"
  },
  {
    "Name": "Genesis Health System",
    "Address": "1520 West 53rd Street Davenport, IA 52806",
    "Hours": "8am - 8pm, Monday - Friday",
    "Latitude": 41.5750405,
    "Longitude": -90.5949245,
    "State": "Lowa",
    "Phone": "(563) 421-4900"
  },
  {
    "Name": "Redington-Fairview General Hospital",
    "Address": "46 Fairview Ave, Skowhegan, ME 04976",
    "Hours": "Call to confirm",
    "Latitude": 44.7593498,
    "Longitude": -69.7135128,
    "State": "Maine",
    "Phone": "(207) 474-5121"
  },
  {
    "Name": "Bass Park in Bangor",
    "Address": "100 Dutton StreetBangor, Maine 04401",
    "Hours": "Call to confirm",
    "Latitude": 44.7881343,
    "Longitude": -68.7790255,
    "State": "Maine",
    "Phone": "(207) 947-5555"
  },
  {
    "Name": "LincolnHealth",
    "Address": "35 Miles St, Damariscotta, ME 04543",
    "Hours": "24 hours",
    "Latitude": 44.0262218,
    "Longitude": -69.5305152,
    "State": "Maine",
    "Phone": "(207) 563-1234"
  },
  {
    "Name": "Northern Light CA Dean Hospital",
    "Address": "364 Pritham Ave, Greenville Junction, ME 04442",
    "Hours": "Call to confirm",
    "Latitude": 45.4589126,
    "Longitude": -69.6112889,
    "State": "Maine",
    "Phone": "(207) 695-5200"
  },
  {
    "Name": "Northern Light Inland Hospital",
    "Address": "200 Kennedy Memorial Dr, Waterville, ME 04901",
    "Hours": "24 hours",
    "Latitude": 44.5428876,
    "Longitude": -69.6625689,
    "State": "Maine",
    "Phone": "(207) 861-3000"
  },
  {
    "Name": "Waldo County General Hospital",
    "Address": "118 Northport Ave, Belfast, ME 04915",
    "Hours": "24 hours",
    "Latitude": 44.4126255,
    "Longitude": -68.9942489,
    "State": "Maine",
    "Phone": "(207) 338-2500"
  },
  {
    "Name": "Western Maine Health",
    "Address": "8 Pikes Hill, Norway, ME 04268",
    "Hours": "24 hours",
    "Latitude": 44.212686,
    "Longitude": -70.5429661,
    "State": "Maine",
    "Phone": "(207) 743-5933"
  },
  {
    "Name": "Southern Maine Health Care: Emergency Room",
    "Address": "1 Medical Center Dr, Biddeford, ME 04005",
    "Hours": "24 hours",
    "Latitude": 43.4776176,
    "Longitude": -70.4903747,
    "State": "Maine",
    "Phone": "(207) 294-5000"
  },
  {
    "Name": "Franklin Memorial Hospital",
    "Address": "111 Franklin health commons, Farmington, ME 04938",
    "Hours": "24 hours",
    "Latitude": 44.6261394,
    "Longitude": -70.1632104,
    "State": "Maine",
    "Phone": "(207) 778-6031"
  },
  {
    "Name": "Northern Light Maine Coast Hospital",
    "Address": "50 Union St, Ellsworth, ME 04605",
    "Hours": "24 hours",
    "Latitude": 44.5470352,
    "Longitude": -68.4161186,
    "State": "Maine",
    "Phone": "(207) 664-5311"
  },
  {
    "Name": "Maine Medical Center",
    "Address": "22 Bramhall St, Portland, ME 04102",
    "Hours": "24 hours",
    "Latitude": 43.6532195,
    "Longitude": -70.2751785,
    "State": "Maine",
    "Phone": "(207) 662-0111"
  },
  {
    "Name": "Houlton Regional Hospital",
    "Address": "20 Hartford St, Houlton, ME 04730",
    "Hours": "24 hours",
    "Latitude": 46.1315712,
    "Longitude": -67.8435603,
    "State": "Maine",
    "Phone": "(207) 532-2900"
  },
  {
    "Name": "Central Maine Medical Center Emergency Department",
    "Address": "300 Main St, Lewiston, ME 04240",
    "Hours": "24 hours",
    "Latitude": 44.1021568,
    "Longitude": -70.2145298,
    "State": "Maine",
    "Phone": "(207) 795-2200"
  },
  {
    "Name": "Pen Bay Medical Center",
    "Address": "6 Glen Cove Dr, Rockport, ME 04856",
    "Hours": "24 hours",
    "Latitude": 44.1441064,
    "Longitude": -69.0842266,
    "State": "Maine",
    "Phone": "(207) 301-8000"
  },
  {
    "Name": "Carroll Hospital",
    "Address": "200 Memorial Ave, Westminster, MD 21157",
    "Hours": "12 pm - 6 pm, Every day",
    "Latitude": 39.5582432,
    "Longitude": -76.9908346,
    "State": "Maryland",
    "Phone": "(410) 848-3000"
  },
  {
    "Name": "Suburban Hospital",
    "Address": "Address: 8600 Old Georgetown Rd, Bethesda, MD 20814",
    "Hours": "24 hours",
    "Latitude": 38.9972577,
    "Longitude": -77.110582,
    "State": "Maryland",
    "Phone": "(301) 896-3100"
  },
  {
    "Name": "Adventist HealthCare White Oak Medical Center",
    "Address": "11890 Healing Way, Silver Spring, MD 20904",
    "Hours": "24 hours",
    "Latitude": 39.0494367,
    "Longitude": -76.9576649,
    "State": "Maryland",
    "Phone": "(240) 637-4000"
  },
  {
    "Name": "UPMC Western Maryland",
    "Address": "12500 Willowbrook Rd, Cumberland, MD 21502",
    "Hours": "24 hours",
    "Latitude": 39.6481502,
    "Longitude": -78.7325179,
    "State": "Maryland",
    "Phone": "(240) 964-7000"
  },
  {
    "Name": "MedStar Montgomery Medical Center",
    "Address": "18101 Prince Philip Dr, Olney, MD 20832",
    "Hours": "24 hours",
    "Latitude": 39.1540614,
    "Longitude": -77.0547374,
    "State": "Maryland",
    "Phone": "(301) 774-8882"
  },
  {
    "Name": "Holy Cross Germantown Hospital Emergency Room",
    "Address": "19801 Observation Dr, Germantown, MD 20876",
    "Hours": "Call to confirm",
    "Latitude": 39.1816721,
    "Longitude": -77.242491,
    "State": "Maryland",
    "Phone": "(301) 557-6000"
  },
  {
    "Name": "Union Hospital of Cecil County",
    "Address": "06 Bow St, Elkton, MD 21921",
    "Hours": "24 hours",
    "Latitude": 39.6092669,
    "Longitude": -75.8311358,
    "State": "Maryland",
    "Phone": "(410) 398-4000"
  },
  {
    "Name": "MedStar St. Maryâ€™s Hospital",
    "Address": "25500 Point Lookout Rd, Leonardtown, MD 20650",
    "Hours": "24 hours",
    "Latitude": 38.3020953,
    "Longitude": -76.6382144,
    "State": "Maryland",
    "Phone": "(301) 475-8981"
  },
  {
    "Name": "Frederick Health Hospital",
    "Address": "400 W 7th St, Frederick, MD 21701",
    "Hours": "9 am until supplies last",
    "Latitude": 39.4224195,
    "Longitude": -77.4149715,
    "State": "Maryland",
    "Phone": "(240) 566-3300"
  },
  {
    "Name": "Adventist HealthCare Shady Grove Medical Center",
    "Address": "9901 Medical Center Dr, Rockville, MD 20850",
    "Hours": "24 hours",
    "Latitude": 39.0980422,
    "Longitude": -77.1982981,
    "State": "Maryland",
    "Phone": "(240) 826-6000"
  },
  {
    "Name": "John's Hopkins Hospital",
    "Address": "1800 Orleans St, Baltimore, MD 21287",
    "Hours": "24 hours",
    "Latitude": 39.2961773,
    "Longitude": -76.591756,
    "State": "Maryland",
    "Phone": "(410) 955-5000"
  },
  {
    "Name": "Anne Arundel Medical Center",
    "Address": "2001 Medical Pkwy, Annapolis, MD 21401",
    "Hours": "24 hours",
    "Latitude": 38.9901469,
    "Longitude": -76.5341382,
    "State": "Maryland",
    "Phone": "(443) 481-1000"
  },
  {
    "Name": "Garrett Regional Medical Center",
    "Address": "251 N 4th St, Oakland, MD 21550",
    "Hours": "24 hours",
    "Latitude": 39.413393,
    "Longitude": -79.4010325,
    "State": "Maryland",
    "Phone": "(301) 533-4000"
  },
  {
    "Name": "Holy Cross Hospital",
    "Address": "1500 Forest Glen Rd, Silver Spring, MD 20910",
    "Hours": "24 hours",
    "Latitude": 39.0147079,
    "Longitude": -77.0347487,
    "State": "Maryland",
    "Phone": "(301) 754-7000"
  },
  {
    "Name": "University of Maryland Charles Regional Medical Center",
    "Address": "5 Garrett Ave, La Plata, MD 20646",
    "Hours": "24 hours",
    "Latitude": 38.52906,
    "Longitude": -76.9724071,
    "State": "Maryland",
    "Phone": "(301) 609-4000"
  },
  {
    "Name": "CalvertHealth Medical Center",
    "Address": "100 Hospital Rd, Prince Frederick, MD 20678",
    "Hours": "24 hours",
    "Latitude": 38.5626456,
    "Longitude": -76.5956632,
    "State": "Maryland",
    "Phone": "(410) 535-4000"
  },
  {
    "Name": "Chesapeake ERgent Care",
    "Address": "1071 MD-3 #101, Gambrills, MD 21054",
    "Hours": "Call to confirm",
    "Latitude": 39.0255941,
    "Longitude": -76.6889427,
    "State": "Maryland",
    "Phone": "(410) 721-2333"
  },
  {
    "Name": "MedStar Union Memorial Hospital",
    "Address": "201 E University Pkwy, Baltimore, MD 21218",
    "Hours": "24 hours",
    "Latitude": 39.329267,
    "Longitude": -76.614289,
    "State": "Maryland",
    "Phone": "(410) 554-2000"
  },
  {
    "Name": "Howard County General Hospital",
    "Address": "Address:5755 Cedar Ln, Columbia, MD 21044",
    "Hours": "24 hours",
    "Latitude": 39.2141113,
    "Longitude": -76.885968,
    "State": "Maryland",
    "Phone": "(410) 740-7890"
  },
  {
    "Name": "UM Baltimore Washington Medical Center",
    "Address": "301 Hospital Drive, Glen Burnie, MD 21061",
    "State": "Maryland",
    "Phone": "410-787-4000",
    "Main Website": "https://www.umms.org/bwmc/locations/um-baltimore-washington-medical-center",
    "Appointment Needed": "Yes",
    "Latitude": 39.1376872,
    "Longitude": -76.6228375
  },
  {
    "Name": "UM Laurel Medical Center\n",
    "Address": "7300 Van Dusen Road, Laurel, MD 20707",
    "State": "Maryland",
    "Phone": "301-725-4300",
    "Main Website": "https://www.umms.org/capital/locations/um-laurel-medical-center",
    "Appointment Needed": "Yes",
    "Latitude": 39.0866732,
    "Longitude": -76.8818523
  },
  {
    "Name": "UM Prince George's Hospital Center",
    "Address": "3001 Hospital Drive, Cheverly, MD 20785",
    "State": "Maryland",
    "Phone": "301-618-2000",
    "Main Website": "https://www.umms.org/capital/locations/um-prince-georges-hospital-center",
    "Appointment Needed": "Yes",
    "Latitude": 38.9306528,
    "Longitude": -76.9209112
  },
  {
    "Name": "University of Maryland Charles Regional Medical Center",
    "Address": "5 Garrett Avenue, La Plata, MD 20646",
    "State": "Maryland",
    "Phone": "301-609-4000",
    "Main Website": "https://www.umms.org/charles/locations/um-charles-regional-medical-center",
    "Appointment Needed": "Yes",
    "Latitude": 38.52906,
    "Longitude": -76.9724071
  },
  {
    "Name": "University of Maryland Children's Hospital",
    "Address": "22 S. Greene Street, Baltimore, MD 21201",
    "State": "Maryland",
    "Phone": "410-328-5887",
    "Main Website": "https://www.umms.org/childrens/locations/university-maryland-childrens-hospital",
    "Appointment Needed": "Yes",
    "Latitude": 39.2880132,
    "Longitude": -76.6248449
  },
  {
    "Name": "UMMC Midtown Campus",
    "Address": "827 Linden Avenue, Baltimore, MD 21201",
    "State": "Maryland",
    "Phone": "410-225-8000",
    "Main Website": "https://www.umms.org/midtown/locations/ummc-midtown-campus",
    "Appointment Needed": "Yes",
    "Latitude": 39.2986161,
    "Longitude": -76.6207831
  },
  {
    "Name": "University of Maryland Shore Medical Center at Chestertown",
    "Address": "100 Brown Street, Chestertown, MD 21620",
    "State": "Maryland",
    "Phone": "410-778-3300",
    "Main Website": "https://www.umms.org/shore/locations/medical-center-chestertown",
    "Appointment Needed": "Yes",
    "Latitude": 39.21837,
    "Longitude": -76.064499
  },
  {
    "Name": "University of Maryland Shore Medical Center at Dorchester",
    "Address": "300 Byrn Street, Cambridge, MD 21613",
    "State": "Maryland",
    "Phone": "410-228-5511",
    "Main Website": "https://www.umms.org/shore/locations/medical-center-dorchester",
    "Appointment Needed": "Yes",
    "Latitude": 38.5713852,
    "Longitude": -76.0673788
  },
  {
    "Name": "University of Maryland Shore Medical Center at Easton",
    "Address": "219 S. Washington Street, Easton, MD 21601",
    "State": "Maryland",
    "Phone": "410-822-1000",
    "Main Website": "https://www.umms.org/shore/locations/medical-center-easton",
    "Appointment Needed": "Yes",
    "Latitude": 38.7693889,
    "Longitude": -76.076719
  },
  {
    "Name": "University of Maryland St. Joseph Medical Center",
    "Address": "7601 Osler Drive, Towson, MD 21204",
    "State": "Maryland",
    "Phone": "410-337-1000",
    "Main Website": "https://www.umms.org/sjmc/locations/um-st-joseph-medical-center",
    "Appointment Needed": "Yes",
    "Latitude": 39.3873256,
    "Longitude": -76.6111596
  },
  {
    "Name": "UM Harford Memorial Hospital",
    "Address": "501 S Union Ave., Havre de Grace, MD 21078",
    "State": "Maryland",
    "Phone": "443-843-5000",
    "Main Website": "https://www.umms.org/uch/locations/um-harford-memorial-hospital",
    "Appointment Needed": "Yes",
    "Latitude": 39.5429695,
    "Longitude": -76.0908574
  },
  {
    "Name": "\nUM Upper Chesapeake Medical Center",
    "Address": "500 Upper Chesapeake Drive, Bel Air, MD 21014",
    "State": "Maryland",
    "Phone": "443-643-1000",
    "Main Website": "https://www.umms.org/uch/locations/um-upper-chesapeake-medical-center",
    "Appointment Needed": "Yes",
    "Latitude": 39.5188422,
    "Longitude": -76.3461222
  },
  {
    "Name": "Cape Cod Hospital",
    "Address": "27 Park St, Hyannis, MA 02601",
    "Hours": "Open 24 hrs",
    "Latitude": 41.6535048,
    "Longitude": -70.2730138,
    "State": "Massachusetts",
    "Phone": "(508) 771-1800"
  },
  {
    "Name": "Cambridge Health Alliance: Somerville Hospital",
    "Address": "33 Tower Street, Somerville MA 02143; Crown Street parking lot adjacent to Somerville Hospital",
    "Hours": "9 am - 3 pm seven days a week",
    "Latitude": 42.3900624,
    "Longitude": -71.1094393,
    "State": "Massachusetts",
    "Phone": "(617) 591-4500"
  },
  {
    "Name": "Cape Cod Healthcare Urgent Care - Sandwich",
    "Address": "2 Jan Sebastian Drive, Sandwich, MA",
    "Hours": "9 am - 7 pm, Monday - Friday; 8 am - 4 pm Saturday - Sunday",
    "Latitude": 41.7172636,
    "Longitude": -70.4879119,
    "State": "Massachusetts",
    "Phone": "(508) 833-2639"
  },
  {
    "Name": "Cape Cod Community College",
    "Address": "2240 Lyannough Rd, West Barnstable, MA 02668",
    "Hours": "8 am - 6 pm, Monday - Friday",
    "Latitude": 41.6915014,
    "Longitude": -70.3370368,
    "State": "Massachusetts",
    "Phone": "(508) 771-1800"
  },
  {
    "Name": "CVS Pharmacy Shrewsbury",
    "Address": "720 Boston Turnpike, Shrewsbury, MA 01545",
    "Hours": "Call to confirm",
    "Latitude": 42.2766993,
    "Longitude": -71.6959788,
    "State": "Massachusetts",
    "Phone": "(508) 845-6009"
  },
  {
    "Name": "Massachusetts General Hospital",
    "Address": "55 Fruit Street, Boston, MA 02114",
    "Hours": "Open 24hrs",
    "Latitude": 42.3631541,
    "Longitude": -71.0688333,
    "State": "Massachusetts",
    "Phone": "(617) 726-2000"
  },
  {
    "Name": "AFC Urgent Care",
    "Address": "1030 Main Street Waltham, MA",
    "Hours": "Saturday, March 21, 2020 9am to 5pm",
    "Latitude": 42.3755082,
    "Longitude": -71.2528044,
    "State": "Massachusetts",
    "Phone": "(781) 430-8161"
  },
  {
    "Name": "Cape Cod Healthcare Urgent Care - Harwich",
    "Address": "525 Long Pond Drive, Harwich MA",
    "Hours": "8 am - 6 pm, Monday - Friday; 8 am - 4 pm Saturday - Sunday",
    "Latitude": 41.722568,
    "Longitude": -70.0370091,
    "State": "Massachusetts",
    "Phone": "(508) 430-3330"
  },
  {
    "Name": "Falmouth Hospital",
    "Address": "100 Ter Heun Dr, Falmouth, MA 02540",
    "Hours": "Open 24 hrs",
    "Latitude": 41.5649968,
    "Longitude": -70.6195525,
    "State": "Massachusetts",
    "Phone": "(508) 548-5300"
  },
  {
    "Name": "Atrius Health: Peabody Site",
    "Address": "2 Essex Center Dr, Peabody, MA 01960",
    "Latitude": 42.5362829,
    "Longitude": -70.9492001,
    "State": "Massachusetts"
  },
  {
    "Name": "UMass Medical Center, University Campus",
    "Address": "55 Lake Avenue North, Worcester, MA 01655; UMass Medical School parking garage",
    "Hours": "8 am - 5pm Monday - Friday",
    "Latitude": 42.274896,
    "Longitude": -71.761773,
    "State": "Massachusetts",
    "Phone": "(508) 334-1000"
  },
  {
    "Name": "Middleton Family Medicine",
    "Address": "147 S Main St, Middleton, MA 01949",
    "Hours": "8 am - 5:30 pm Monday - Friday; 8 am - 12 pm Saturday - Sunday",
    "Latitude": 42.5838365,
    "Longitude": -71.0071606,
    "State": "Massachusetts",
    "Phone": "(978) 774-2555"
  },
  {
    "Name": "Cape Cod Healthcare Urgent Care - Hyannis",
    "Address": "1220 Iyannough Road, Hyannis, MA",
    "Hours": "9 am - 7 pm, Monday - Friday; 8 am - 4 pm Saturday - Sunday",
    "Latitude": 41.6754133,
    "Longitude": -70.3091459,
    "State": "Massachusetts",
    "Phone": "(508) 862-7900"
  },
  {
    "Name": "Atrius Health: Parking Garage Near Fenway Park",
    "Address": "4 Jersey St, Boston, MA 02215",
    "Hours": "Call to confirm",
    "Latitude": 42.3465694,
    "Longitude": -71.0987712,
    "State": "Massachusetts",
    "Phone": "(617) 421-2933"
  },
  {
    "Name": "Atrius Health: Braintree Site",
    "Address": "111 Grossman Dr, Braintree, MA 02184",
    "Latitude": 42.21001,
    "Longitude": -70.9993522,
    "State": "Massachusetts"
  },
  {
    "Name": "Cooley Dickinson Hospital",
    "Address": "30 Locust St, Northampton, MA",
    "Hours": "Open 24hrs",
    "Latitude": 42.3305027,
    "Longitude": -72.6531304,
    "State": "Massachusetts",
    "Phone": "(413) 582-2000"
  },
  {
    "Name": "Saint Vincent Hospital",
    "Address": "123 Summer St, Worcester, MA 01608",
    "Hours": "Call to confirm",
    "Latitude": 42.2647185,
    "Longitude": -71.7968904,
    "State": "Massachusetts",
    "Phone": "(508) 363-5000"
  },
  {
    "Name": "Cape Cod Healthcare Urgent Care - Falmouth",
    "Address": "273 Teaticket Highway, Falmouth, MA",
    "Hours": "This site is currently closed",
    "Latitude": 41.5676288,
    "Longitude": -70.5946545,
    "State": "Massachusetts",
    "Phone": "(508) 495-8000"
  },
  {
    "Name": "Cambridge Public Health Department",
    "Address": " 119 Windsor Street, Cambridge, MA",
    "Latitude": 42.3646889,
    "Longitude": -71.0967971,
    "State": "Massachusetts",
    "Phone": "617-665-3800, 211",
    "Main Website": "http://cambridgepublichealth.org/services/diseases-conditions/coronavirus.php",
    "Appointment Needed": "Yes"
  },
  {
    "Name": "Boston Public Health Commission",
    "Address": " 1010 Massachusetts Avenue, Boston, MA",
    "Latitude": 42.3279958,
    "Longitude": -71.0672402,
    "State": "Massachusetts",
    "Phone": "617-534-5394",
    "Main Website": "https://bphc.org",
    "Appointment Needed": "Yes"
  },
  {
    "Name": "Amesbury Health Department",
    "Address": " 68 Elm Street, 2nd Floor, Suite 206, Amesbury, MA",
    "Latitude": 42.8583925,
    "Longitude": -70.9300376,
    "State": "Massachusetts",
    "Phone": "978-388-8134",
    "Main Website": "https://www.amesburyma.gov/health-department/news/coronavirus-covid-19-updates",
    "Appointment Needed": "Yes"
  },
  {
    "Name": "Barnstable County Department of Public Health",
    "Address": "3195 Main Street, Barnstable, MA",
    "Latitude": 41.6993653,
    "Longitude": -70.3043457,
    "State": "Massachusetts",
    "Phone": "211, 508-375-6613",
    "Main Website": "https://www.barnstablecountyhealth.org/",
    "Appointment Needed": "Yes"
  },
  {
    "Name": "Fall River Health Department",
    "Address": "Fall River Health Department\n 1 Government Center, Fall River, MA",
    "Latitude": 41.7009163,
    "Longitude": -71.154541,
    "State": "Massachusetts",
    "Phone": "211, 508-324-2410",
    "Main Website": "https://www.fallriverma.org/department/corona-virus-information/",
    "Appointment Needed": "Yes"
  },
  {
    "Name": "Lemuel Shattuck Hospital",
    "Address": "Lemuel Shattuck Hospital\n 170 Morton St., Jamaica Plain, MA",
    "Latitude": 42.2993311,
    "Longitude": -71.101671,
    "State": "Massachusetts",
    "Phone": "617-522-8110, 211",
    "Main Website": "https://www.mass.gov/locations/lemuel-shattuck-hospital",
    "Appointment Needed": "Yes"
  },
  {
    "Name": "Massachusetts Department of Public Health",
    "Address": "Massachusetts Department of Public Health\n 250 Washington Street, Boston, MA",
    "Latitude": 42.35807,
    "Longitude": -71.057716,
    "State": "Massachusetts",
    "Phone": "617-624-6000",
    "Main Website": "https://www.mass.gov/resource/information-on-the-outbreak-of-coronavirus-disease-2019-covid-19",
    "Appointment Needed": "Yes"
  },
  {
    "Name": "Henry Ford Allegiance Health",
    "Address": "100 E Michigan Ave, Jackson, MI 49201",
    "Hours": "Call to confirm",
    "Latitude": 42.2478193,
    "Longitude": -84.4055718,
    "State": "Michigan",
    "Phone": "(313) 874-7500"
  },
  {
    "Name": "Beaumont Hospital, Royal Oak",
    "Address": "3601 W 13 Mile Rd, Royal Oak, MI 48073",
    "Hours": "Call to confirm",
    "Latitude": 42.5147113,
    "Longitude": -83.1917212,
    "State": "Michigan",
    "Phone": "(248) 898-5000"
  },
  {
    "Name": "Michigan Medicine/West Ann Arbor Health Center",
    "Address": "380 Parkland Plaza, Ann Arbor, MI 48103",
    "Hours": "Call to confirm",
    "Latitude": 42.279099,
    "Longitude": -83.812398,
    "State": "Michigan",
    "Phone": "(734) 998-7380"
  },
  {
    "Name": "Mclaren Macomb Hospital",
    "Address": "1000 Harrington St, Mt Clemens, MI 48043",
    "Hours": "Call to confirm",
    "Latitude": 42.5872771,
    "Longitude": -82.8972013,
    "State": "Michigan",
    "Phone": "(586) 493-8000"
  },
  {
    "Name": "North Ottawa Community Health System",
    "Address": "1099 S. Beacon Boulevard Grand Haven, MI",
    "Hours": "9 am - 5 pm",
    "Latitude": 43.0503359,
    "Longitude": -86.2215398,
    "State": "Michigan",
    "Phone": "(616) 935-7810"
  },
  {
    "Name": "Beaumont Health",
    "Address": "Various Locations",
    "Hours": "Call to confirm",
    "State": "Michigan",
    "Phone": "(800) 592-4784"
  },
  {
    "Name": "Mayo Clinic",
    "Address": "3rd Ave SW & 4th St SW, Rochester, MN 55902",
    "Hours": "Call to confirm",
    "Latitude": 44.0192966,
    "Longitude": -92.467363,
    "State": "Minnesota",
    "Phone": "(507) 284-2511"
  },
  {
    "Name": "MedPlus Family and Urgent Care",
    "Address": "874 Barnes Crossing Road, Tupelo, MS 38804",
    "Latitude": 34.3157366,
    "Longitude": -88.7049921,
    "State": "Mississippi",
    "Phone": "662) 841-0002"
  },
  {
    "Name": "Neshoba General Hospital",
    "Address": "12000 MS-15 #1, Philadelphia, MS 39350",
    "Hours": "Call to confirm",
    "Latitude": 32.8101893,
    "Longitude": -89.1057296,
    "State": "Mississippi",
    "Phone": "(601) 663-1213"
  },
  {
    "Name": "MedPlus Family",
    "Address": "874 Barnes Crossing Road, Tupelo, MS",
    "Hours": "7 am - 7 pm, Monday - Friday; 8 am - 7 pm; Saturday; 12 pm - 7 pm, Sunday",
    "Latitude": 34.3157366,
    "Longitude": -88.7049921,
    "State": "Mississippi",
    "Phone": "(662) 841-0002"
  },
  {
    "Name": "MedPlus Urgent Care",
    "Address": "407 Interchange Drive, Fulton, MS",
    "Hours": "7 am - 7 pm, Monday - Friday; 8 am - 7 pm; Saturday; 12 pm - 7 pm, Sunday",
    "Latitude": 34.240567,
    "Longitude": -88.4003337,
    "State": "Mississippi",
    "Phone": "(662) 269-8000"
  },
  {
    "Name": "The Springfield-Greene County Health Department Testing Site",
    "Address": "227 E Chestnut Expy, Springfield, MO 65802",
    "Hours": "Call to confirm. To qualify for COVID-19 testing at this location, you must have a doctor's referral.",
    "Latitude": 37.2159285,
    "Longitude": -93.2911429,
    "State": "Missouri",
    "Phone": "(417) 864-1658"
  },
  {
    "Name": "Boone Hospital",
    "Address": "1600 E. Broadway, Columbia, MO 65201; Lot 1 by the Emergency Room",
    "Hours": "Call to confirm",
    "Latitude": 38.9488484,
    "Longitude": -92.3152023,
    "State": "Missouri",
    "Phone": "(573) 815-8000"
  },
  {
    "Name": "Mercy Hospital Washington",
    "Address": "901 E Fifth St, Washington, MO 63090",
    "Hours": "Call to confirm",
    "Latitude": 38.5524736,
    "Longitude": -91.002236,
    "State": "Missouri",
    "Phone": "(636) 239-8000"
  },
  {
    "Name": "SSM St. Joseph Hospital-Lake St. Louis",
    "Address": "100 Medical Plaza, Lake St Louis, MO 63367",
    "Hours": "Call to confirm",
    "Latitude": 38.8027808,
    "Longitude": -90.7757153,
    "State": "Missouri",
    "Phone": "(636) 625-5200"
  },
  {
    "Name": "Capital Region Medical Center",
    "Address": "1125 Madison St, Jefferson City, MO 65101",
    "Hours": "Call to confirm",
    "Latitude": 38.5656957,
    "Longitude": -92.1816949,
    "State": "Missouri",
    "Phone": "(833) 763-0444"
  },
  {
    "Name": "MU Health",
    "Address": "1 Hospital Dr, Columbia, MO 65201",
    "Hours": "7 am - 7 pm daily",
    "Latitude": 38.938273,
    "Longitude": -92.3273842,
    "State": "Missouri",
    "Phone": "(573) 882-4141"
  },
  {
    "Name": "Mercy Hospital",
    "Address": "15740 S. Outer Forty Road, Chesterfield, Missouri",
    "Hours": "Call to confirm",
    "Latitude": 38.650831,
    "Longitude": -90.5585076,
    "State": "Missouri",
    "Phone": "(314) 251-0500"
  },
  {
    "Name": "Nebraska Medicine",
    "Address": "4350 Dewey Ave, Omaha, NE",
    "Hours": "Call to confirm",
    "Latitude": 41.2565109,
    "Longitude": -95.9779752,
    "State": "Nebraska",
    "Phone": "(402) 559-4000"
  },
  {
    "Name": "CHI Health Lakeside",
    "Address": "16901 Lakeside Hills Ct, Omaha, NE 68130",
    "Hours": "24 hours",
    "Latitude": 41.2375247,
    "Longitude": -96.1806251,
    "State": "Nebraska",
    "Phone": "(402) 717-8000"
  },
  {
    "Name": "CHI Health St. Mary's",
    "Address": "1301 Grundman Blvd, Nebraska City, NE 68410",
    "Hours": "24 hours",
    "Latitude": 40.6564185,
    "Longitude": -95.8625877,
    "State": "Nebraska",
    "Phone": "(402) 873-3321"
  },
  {
    "Name": "Bellevue Hospital",
    "Address": "2500 Bellevue Medical Center Dr, Bellevue, NE",
    "Hours": "24 hours",
    "Latitude": 41.1372483,
    "Longitude": -95.9479998,
    "State": "Nebraska",
    "Phone": "(800) 922-0000"
  },
  {
    "Name": "CHI Health Midlands",
    "Address": "11111 S 84th St, Papillion, NE 68046",
    "Hours": "24 hours",
    "Latitude": 41.135853,
    "Longitude": -96.040111,
    "State": "Nebraska",
    "Phone": "(402) 593-3000"
  },
  {
    "Name": "Nebraska Methodist Health System",
    "Address": "825 S 169th St, Omaha, NE",
    "Hours": "24 hours",
    "Latitude": 41.2506406,
    "Longitude": -96.1781343,
    "State": "Nebraska",
    "Phone": "(402) 815-7425"
  },
  {
    "Name": "Bryan Medical Center",
    "Address": "2300 S. 16th St. Lincoln, NE",
    "Hours": "24 hours. Please take this free, short online questionnaire to determine if you should seek care: https://bryanhealth.zipnosis.com/",
    "Latitude": 40.7894293,
    "Longitude": -96.6980919,
    "State": "Nebraska",
    "Phone": "(402) 481-0500"
  },
  {
    "Name": "Saint Mary's Medical Group - North Valleys",
    "Address": "280 Vista Knoll Pkwy , Reno, NV 89506",
    "Hours": "8 am - 5 pm Monday, Tuesday, Thursday, Friday; 8 am -4 pm Wednesday; 9 am - 5 pm Saturday & Sunday",
    "Latitude": 39.6169898,
    "Longitude": -119.8544717,
    "State": "Nevada",
    "Phone": "(775) 770-7530"
  },
  {
    "Name": "Saint Mary's Medical Group - Northwest Reno",
    "Address": "6255 Sharlands Ave , Reno, NV 89523",
    "Hours": "7 am - 7 pm Monday - Friday; 9 am - 5 pm Saturday & Sunday",
    "Latitude": 39.5178277,
    "Longitude": -119.8827455,
    "State": "Nevada",
    "Phone": "(775) 770-7580"
  },
  {
    "Name": "Sahara West Urgent Care",
    "Address": "6125 W Sahara Ave #1B, Las Vegas, NV 89146",
    "Hours": "9 am - 9 pm seven days a week",
    "Latitude": 36.142563,
    "Longitude": -115.2262914,
    "State": "Nevada",
    "Phone": "(702) 248-0554"
  },
  {
    "Name": "Saint Mary's Medical Group - Spanish Springs",
    "Address": "5070 Ion Dr , Sparks, NV 89436",
    "Hours": "7 am - 7 pm Monday - Friday; 9 am - 5 pm Saturday & Sunday",
    "Latitude": 39.5846215,
    "Longitude": -119.7305236,
    "State": "Nevada",
    "Phone": "(775) 770-7727"
  },
  {
    "Name": "Saint Mary's Medical Group - Galena",
    "Address": "18653 Wedge Pkwy , Reno, NV 89511",
    "Hours": "7 am - 7 pm Monday - Friday; 9 am - 5 pm Saturday & Sunday",
    "Latitude": 39.3903954,
    "Longitude": -119.7698625,
    "State": "Nevada",
    "Phone": "(775) 770-7210"
  },
  {
    "Name": "Valley Regional Urgent Care",
    "Address": "2 Dunning St, Claremont, NH 03743; Outside on the Dunning Street side",
    "Hours": "8 am - 7 pm Monday-Friday; 8 am - 4:30 pm Saturday & Sunday",
    "Latitude": 43.3850123,
    "Longitude": -72.340686,
    "State": "New Hampshire",
    "Phone": "(603) 542-7850"
  },
  {
    "Name": "Elliot Hospital",
    "Address": "1 Elliot Way, Manchester, NH 03103",
    "Hours": "Call to confirm for hours",
    "Latitude": 42.9840799,
    "Longitude": -71.4366154,
    "State": "New Hampshire",
    "Phone": "(603) 669-5300"
  },
  {
    "Name": "Keady Family Practice",
    "Address": "214 Washington St, Claremont, NH 03743",
    "Hours": "8:30 am â€“ 6:30 pm Monday - Friday; 8 am â€“ 12 pm Saturday; Closed Sunday",
    "Latitude": 43.371364,
    "Longitude": -72.3267425,
    "State": "New Hampshire",
    "Phone": "(603) 863-7777"
  },
  {
    "Name": "New Hampshire National Guard Armory",
    "Address": "1059 Canal St, Manchester, NH 03101",
    "Hours": "Call to confirm for hours",
    "Latitude": 43.0023816,
    "Longitude": -71.4670638,
    "State": "New Hampshire",
    "Phone": "(603) 623-9613"
  },
  {
    "Name": "Wentworth-Douglass Express Care",
    "Address": "Wentworth-Douglass Express Care - Lee\n 65 Calef Highway, Lee, NH 03861",
    "Latitude": 43.1530507,
    "Longitude": -71.0044943,
    "State": "New Hampshire",
    "Phone": "603-868-8507",
    "Main Website": "https://www.wdhospital.org/express",
    "Appointment Needed": "Yes"
  },
  {
    "Name": "Wentworth-Douglass Express Care",
    "Address": "Wentworth-Douglass Express Care - Dover\n 701 Central Avenue, Dover, NH 03820",
    "Latitude": 43.2079664,
    "Longitude": -70.8745898,
    "State": "New Hampshire",
    "Phone": "603-609-6700",
    "Main Website": "https://www.wdhospital.org/express",
    "Appointment Needed": "Yes"
  },
  {
    "Name": "Wentworth-Douglass Hospital",
    "Address": "Wentworth-Douglass Hospital\n 789 Central Avenue, Dover, NH 03820",
    "Latitude": 43.2127546,
    "Longitude": -70.8736964,
    "State": "New Hampshire",
    "Phone": "603-742-5252",
    "Main Website": "https://www.wdhospital.org/wdh",
    "Appointment Needed": "Yes"
  },
  {
    "Name": "Wentworth-Douglass Outpatient Center",
    "Address": "Wentworth-Douglass Outpatient Center - Dover\n 10 Members Way, Lee, NH 03820",
    "Latitude": 43.214181,
    "Longitude": -70.9030215,
    "State": "New Hampshire",
    "Phone": "603-609-6930",
    "Main Website": "https://www.wdhospital.org/wdh/about-wdh/locations-and-directions/lee-outpatient-center-2",
    "Appointment Needed": "Yes"
  },
  {
    "Name": "Bergen County Community College",
    "Address": "400 Paramus Rd, Paramus, NJ 07652; Parking Lots B & C",
    "Hours": "8 am - 4 pm seven days a week",
    "Latitude": 40.9516735,
    "Longitude": -74.0939011,
    "State": "New Jersey",
    "Phone": "(201) 447-7100"
  },
  {
    "Name": "InFocus Urgent Care",
    "Address": "64 Princeton Hightstown Road, West Windsor, NJ 08550",
    "Hours": "10 am - 8 pm Monday - Friday; 10 am - 5 pm Saturday & Sunday",
    "Latitude": 40.3173936,
    "Longitude": -74.6201086,
    "State": "New Jersey",
    "Phone": "(609) 799-7009"
  },
  {
    "Name": "InFocus Urgent Care",
    "Address": "100 Campus Town Circle Suite 100 Ewing Township, NJ 08638",
    "Hours": "10 am - 8 pm Monday - Friday; 10 am - 4 pm Saturday & Sunday",
    "Latitude": 40.2686973,
    "Longitude": -74.7830967,
    "State": "New Jersey",
    "Phone": "(609) 799-7009"
  },
  {
    "Name": "Mountainside Medical Center",
    "Address": "1 Bay St, Montclair, NJ, 07042",
    "Hours": "Call to confirm for hours",
    "Latitude": 40.8101189,
    "Longitude": -74.2055733,
    "State": "New Jersey",
    "Phone": "(973) 429-6000"
  },
  {
    "Name": "Cooper University Hospital",
    "Address": "One Cooper Plazam 246 S 6th St, Camden, NJ 08103",
    "Hours": "Call to confirm for hours",
    "Latitude": 39.9416198,
    "Longitude": -75.1170466,
    "State": "New Jersey",
    "Phone": "(800) 222-1222"
  },
  {
    "Name": "JFK Medical Center",
    "Address": "65 James Street, Edison, NJ 08820",
    "Hours": "Call to confirm for hours",
    "Latitude": 40.5563348,
    "Longitude": -74.3504495,
    "State": "New Jersey",
    "Phone": "(732) 321-7000"
  },
  {
    "Name": "Pascack Valley Medical Center",
    "Address": "250 Old Hook Rd, Westwood, NJ 07675",
    "Hours": "Call to confirm for hours",
    "Latitude": 40.9854623,
    "Longitude": -74.0152903,
    "State": "New Jersey",
    "Phone": "(201) 383-1035"
  },
  {
    "Name": "Raritan Bay Medical Center Old Bridge",
    "Address": "1 Hospital Plaza, Old Bridge, NJ 08857",
    "Hours": "Call to confirm for hours",
    "Latitude": 40.3859487,
    "Longitude": -74.3234755,
    "State": "New Jersey",
    "Phone": "(732) 360-1000"
  },
  {
    "Name": "Hackensack University Medical Center - Emergency Room",
    "Address": "30 Prospect Avenue, Hackensack, NJ 07601",
    "Hours": "Call to confirm for hours",
    "Latitude": 40.8840335,
    "Longitude": -74.0565417,
    "State": "New Jersey",
    "Phone": "(551) 996-2000"
  },
  {
    "Name": "Hudson Regional Hospital",
    "Address": "55 Meadowlands Pkwy, Secaucus, NJ 07094",
    "Hours": "Call to confirm for hours",
    "Latitude": 40.7917444,
    "Longitude": -74.0734305,
    "State": "New Jersey",
    "Phone": "(201) 388-1097"
  },
  {
    "Name": "Riverside Medical Group",
    "Address": "714 10th St, Secaucus, NJ 07094",
    "Hours": "Call to confirm for hours",
    "Latitude": 40.7936844,
    "Longitude": -74.0687265,
    "State": "New Jersey",
    "Phone": "(201) 863-3346"
  },
  {
    "Name": "Joseph M. Sanzari Children's Hospital",
    "Address": "30 Prospect Avenue, Hackensack, NJ 07601",
    "Hours": "Call to confirm for hours",
    "Latitude": 40.8840335,
    "Longitude": -74.0565417,
    "State": "New Jersey",
    "Phone": "(551) 996-2000"
  },
  {
    "Name": "Raritan Bay Medical Center Perth Amboy",
    "Address": "530 New Brunswick Ave, Perth Amboy, NJ 08861",
    "Hours": "Call to confirm for hours",
    "Latitude": 40.5189218,
    "Longitude": -74.2805577,
    "State": "New Jersey",
    "Phone": "(732) 442-3700"
  },
  {
    "Name": "Robert Wood Johnson University Hospital",
    "Address": "1 Robert Wood Johnson Place, New Brunswick, NJ 08901",
    "Hours": "Call to confirm for hours",
    "Latitude": 40.4864958,
    "Longitude": -74.4155733,
    "State": "New Jersey",
    "Phone": "(732) 828-3000"
  },
  {
    "Name": "Palisades Medical Center",
    "Address": "7600 River Rd, North Bergen, NJ 07047",
    "Hours": "Call to confirm for hours",
    "Latitude": 40.7937964,
    "Longitude": -73.9964049,
    "State": "New Jersey",
    "Phone": "(201) 854-5000"
  },
  {
    "Name": "Kean University",
    "Address": "1000 Morris Ave, Union, NJ 07083",
    "State": "New Jersey",
    "Phone": "(732) 775-5500",
    "Appointment Needed": "Yes",
    "Drive Through": true,
    "Latitude": 40.6764579,
    "Longitude": -74.2284791
  },
  {
    "Name": "Jersey Shore University Medical Center",
    "Address": "1945 NJ-33, Neptune City, NJ 07753",
    "State": "New Jersey",
    "Phone": "(732) 775-5500",
    "Appointment Needed": "Yes",
    "Latitude": 40.2091347,
    "Longitude": -74.041212
  },
  {
    "Name": "Bayshore Medical Center",
    "Address": "727 North Beers St, Holmdel, NJ 07733",
    "State": "New Jersey",
    "Phone": "(732) 739-5900",
    "Appointment Needed": "Yes",
    "Latitude": 40.4054853,
    "Longitude": -74.1917012
  },
  {
    "Name": "Immediate Care at the Marlboro Medical Arts Building",
    "Address": "479 ROUTE 520, MARLBORO, NJ 07746",
    "State": "New Jersey",
    "Phone": "(855) 925-5467",
    "Appointment Needed": "Yes",
    "Drive Through": true,
    "Latitude": 40.3334534,
    "Longitude": -74.2419136
  },
  {
    "Name": "Riverview Medical Center",
    "Address": "1 Riverview Plaza, Red Bank, NJ 07701",
    "State": "New Jersey",
    "Phone": "(732) 741-2700",
    "Appointment Needed": "Yes",
    "Latitude": 40.3536779,
    "Longitude": -74.0639766
  },
  {
    "Name": "Ocean Medical Center",
    "Address": "Ocean Medical Center",
    "State": "New Jersey",
    "Phone": "(732) 840-2200",
    "Appointment Needed": "Yes",
    "Drive Through": true,
    "Latitude": 40.0769444,
    "Longitude": -74.1316667
  },
  {
    "Name": "Southern Ocean Medical Center",
    "Address": "1140 Route 72 West, Manahawkin, NJ 08050",
    "State": "New Jersey",
    "Phone": "(609) 597-6011",
    "Appointment Needed": "Yes",
    "Latitude": 39.7204304,
    "Longitude": -74.2850856
  },
  {
    "Name": "K. Hovnanian Children's Hospital",
    "Address": "1945 NJ-33, Neptune City, NJ 07753",
    "State": "New Jersey",
    "Phone": "(732) 775-5500",
    "Appointment Needed": "Yes",
    "Latitude": 40.2091347,
    "Longitude": -74.041212
  },
  {
    "Name": "Middlesex County Health Department",
    "Address": "1 Olive Street, Perth Amboy, NJ",
    "State": "New Jersey",
    "Phone": "732-826-0440",
    "Appointment Needed": "Yes",
    "Latitude": 40.509175,
    "Longitude": -74.2785898
  },
  {
    "Name": "Atlantic County Health Department",
    "Address": "201 Shore Road, Northfield, NJ",
    "State": "New Jersey",
    "Phone": "609-645-5933",
    "Main Website": "http://www.aclink.org/",
    "Appointment Needed": "Yes",
    "Latitude": 39.3768841,
    "Longitude": -74.5380434
  },
  {
    "Name": "Somerset County Department of Health",
    "Address": "27 Warren Street, Somerville, NJ",
    "State": "New Jersey",
    "Phone": "908-231-7155",
    "Main Website": "http://www.co.somerset.nj.us/health",
    "Appointment Needed": "Yes",
    "Latitude": 40.5666753,
    "Longitude": -74.6104425
  },
  {
    "Name": "Cumberland County Public Health Department",
    "Address": "309 Buck Street, Millville, NJ",
    "State": "New Jersey",
    "Phone": "856-327-7602",
    "Main Website": "http://www.cshealth.org/cumberland/index.htm",
    "Appointment Needed": "Yes",
    "Latitude": 39.3986812,
    "Longitude": -75.0393703
  },
  {
    "Name": "Union County Office of Health Management",
    "Address": "300 North Avenue East, Westfield, NJ",
    "State": "New Jersey",
    "Phone": "908-518-5620",
    "Main Website": "http://www.ucnj.org/lincs/",
    "Appointment Needed": "Yes",
    "Latitude": 40.6506928,
    "Longitude": -74.342847
  },
  {
    "Name": "PNC Bank Arts Center",
    "Address": "116 Garden State Pkwy, Holmdel, NJ 07733",
    "Hours": "8am-4pm M-F, Sunday, Saturday-first responders and healthcare workers only",
    "State": "New Jersey",
    "Phone": "(732) 203-2500",
    "Main Website": "https://covid19.nj.gov/faqs/nj-information/testing-information/where-are-testing-centers-in-new-jersey",
    "Appointment Needed": "No",
    "Drive Through": true,
    "Latitude": 40.3935926,
    "Longitude": -74.1755569
  },
  {
    "Name": "Kean University - UNION COUNTY RESIDENTS ONLY",
    "Address": "1000 Morris Ave, Union, NJ 07083",
    "State": "New Jersey",
    "Main Website": "https://ucnj.org/press-releases/public-info/2020/03/21/county-of-union-to-open-states-first-county-run-drive-through-testing-center-for-covid-19-at-kean-university-on-monday/",
    "Appointment Needed": "Yes",
    "Latitude": 40.6764579,
    "Longitude": -74.2284791
  },
  {
    "Name": "\nHackensack Meridian Urgent Care-Brick",
    "Address": "2125 Route 88 East, Brick, NJ 08724",
    "State": "New Jersey",
    "Phone": "732-892-4640",
    "Main Website": "https://www.hackensackmeridianhealth.org/",
    "Appointment Needed": "Yes",
    "Latitude": 40.0759644,
    "Longitude": -74.1019269
  },
  {
    "Name": "Hackensack Meridian Urgent Care-Piscataway",
    "Address": "1080 Stelton Road, Piscataway, NJ 08854\n",
    "State": "New Jersey",
    "Phone": "848-230-6802",
    "Main Website": "https://www.hackensackmeridianhealth.org/",
    "Appointment Needed": "Yes",
    "Latitude": 40.5479621,
    "Longitude": -74.4294341
  },
  {
    "Name": "Hackensack Meridian Urgent Care-Long Beach Island",
    "Address": "901 Long Beach Blvd, Ship Bottom, NJ 08008",
    "State": "New Jersey",
    "Phone": "609-361-2677",
    "Main Website": "https://www.hackensackmeridianhealth.org/",
    "Appointment Needed": "Yes",
    "Latitude": 39.6489743,
    "Longitude": -74.1766348
  },
  {
    "Name": "Hackensack Meridian Urgent Care-Neptune City",
    "Address": "2040 Route 33, Neptune City, NJ 07753",
    "State": "New Jersey",
    "Phone": "732-455-5800",
    "Main Website": "https://www.hackensackmeridianhealth.org/",
    "Appointment Needed": "Yes",
    "Latitude": 40.2067311,
    "Longitude": -74.0435069
  },
  {
    "Name": "Hackensack Meridian Urgent Care-Forked River",
    "Address": "701 U.S. 9, Forked River, NJ 08731",
    "State": "New Jersey",
    "Phone": "609-250-4110",
    "Main Website": "https://www.hackensackmeridianhealth.org/",
    "Appointment Needed": "Yes",
    "Latitude": 39.8256773,
    "Longitude": -74.2022777
  },
  {
    "Name": "Hackensack Meridian Urgent Care-Jackson",
    "Address": "27 S Cooksbridge Road Suite 1-5, Jackson, NJ 08527",
    "State": "New Jersey",
    "Phone": "732-370-4222",
    "Main Website": "https://www.hackensackmeridianhealth.org/",
    "Appointment Needed": "Yes",
    "Latitude": 40.1217101,
    "Longitude": -74.2885369
  },
  {
    "Name": "Hackensack Meridian Urgent Care-Monroe",
    "Address": "215 Applegarth Road, Monroe, NJ 08831",
    "State": "New Jersey",
    "Phone": "732-263-7922",
    "Main Website": "https://www.hackensackmeridianhealth.org/\n",
    "Appointment Needed": "Yes",
    "Latitude": 40.2891241,
    "Longitude": -74.4724142
  },
  {
    "Name": "Princeton Health",
    "Address": "1 Plainsboro Road, Plainsboro, NJ 08536",
    "State": "New Jersey",
    "Phone": "866-460-4776",
    "Main Website": "https://www.pennmedicine.org/for-patients-and-visitors/penn-medicine-locations/princeton-health",
    "Appointment Needed": "Yes",
    "Latitude": 40.3398823,
    "Longitude": -74.624372
  },
  {
    "Name": "Lovelace Medical Center",
    "Address": "601 Dr Martin Luther King Jr Ave NE, Albuquerque, NM 87102",
    "Hours": "7 A.M. to 7 P.M",
    "State": "New Mexico",
    "Appointment Needed": "Yes",
    "Drive Through": true,
    "Latitude": 35.0861468,
    "Longitude": -106.6399527
  },
  {
    "Name": "NYC Health + Hospitals/Gotham Health, Vanderbilt",
    "Address": "165 Vanderbilt Avenue, Staten Island, NY, 10304",
    "Hours": "24 Hours",
    "State": "New York",
    "Phone": "(844) 692-4692",
    "Appointment Needed": "Yes",
    "Latitude": 40.6203745,
    "Longitude": -74.0768895
  },
  {
    "Name": "Good Samaritan Hospital",
    "Address": "255 Lafayette Ave. (Route 59), Suffern, NY 10901",
    "State": "New York",
    "Appointment Needed": "Yes",
    "Latitude": 41.1114402,
    "Longitude": -74.1356929
  },
  {
    "Name": "Harriman State Park",
    "Address": "54 Seven Lakes Dr, Sloatsburg, NY 10974",
    "Hours": "7A.M.- 7P.M",
    "State": "New York",
    "Phone": "(888) 364-3065",
    "Appointment Needed": "Yes",
    "Drive Through": true,
    "Latitude": 41.1743962,
    "Longitude": -74.1757495
  },
  {
    "Name": "NYC Health + Hospitals/Woodhull",
    "Address": "760 Broadway, Brooklyn, New York 11206",
    "Hours": "24 Hours",
    "State": "New York",
    "Phone": "(844) 692-4692",
    "Appointment Needed": "Yes",
    "Latitude": 40.6996948,
    "Longitude": -73.9425116
  },
  {
    "Name": "Crystal Run Healthcare",
    "Address": "2 Centerock Rd, West Nyack, NY 10994",
    "State": "New York",
    "Phone": "(845) 643-3909",
    "Appointment Needed": "Yes",
    "Latitude": 41.0939533,
    "Longitude": -73.9788682
  },
  {
    "Name": "NYC Health + Hospitals/Gotham Health, East New York",
    "Address": "2094 Pitkin Avenue, Brooklyn, New York 11207",
    "Hours": "24 Hours",
    "State": "New York",
    "Phone": "(844) 692-4694",
    "Appointment Needed": "Yes",
    "Latitude": 40.671746,
    "Longitude": -73.8952429
  },
  {
    "Name": "NYC Health + Hospitals/Lincoln",
    "Address": "234 East 149th Street, Bronx, New York 10451",
    "Hours": "24 Hours",
    "State": "New York",
    "Phone": "(844) 692-4692",
    "Appointment Needed": "Yes",
    "Latitude": 40.8160855,
    "Longitude": -73.9247762
  },
  {
    "Name": "NYC Health + Hospitals/Gotham Health, Sydenham",
    "Address": "264 West 118th Street, New York, New York 10026",
    "Hours": "24 Hours",
    "State": "New York",
    "Phone": "(844) 692-4694",
    "Appointment Needed": "Yes",
    "Latitude": 40.8052028,
    "Longitude": -73.9536622
  },
  {
    "Name": "NYC Health + Hospitals/Gotham Health, Cumberland",
    "Address": "100 North Portland Avenue, Brooklyn, New York 11205",
    "Hours": "24 Hours",
    "State": "New York",
    "Phone": "(844) 692-4693",
    "Appointment Needed": "Yes",
    "Latitude": 40.695099,
    "Longitude": -73.9764879
  },
  {
    "Name": "Wilson Center Urgent Care - Rochester General Hospita",
    "Address": "Wilson building, 1425 Portland Ave, Rochester, NY 14621",
    "State": "New York",
    "Phone": "(585) 753-5555",
    "Appointment Needed": "Yes",
    "Latitude": 43.1925828,
    "Longitude": -77.5908656
  },
  {
    "Name": "NYC Health + Hospitals/Queens",
    "Address": "82-68 164th Street, Jamaica, New York 11432",
    "Hours": "24 Hours",
    "State": "New York",
    "Phone": "(844) 692-4692",
    "Appointment Needed": "Yes",
    "Latitude": 40.7171653,
    "Longitude": -73.8035365
  },
  {
    "Name": "ProHEALTH Urgent Care - Jericho - EXPANDED HOURS",
    "Address": "555 N Broadway, Jericho, NY 11753",
    "State": "New York",
    "Phone": "(516) 874-0411\n",
    "Appointment Needed": "Yes",
    "Latitude": 40.7909498,
    "Longitude": -73.5369995
  },
  {
    "Name": "Glen Island Park",
    "Address": "Weyman Ave, New Rochelle, NY 10805",
    "State": "New York",
    "Phone": "(888) 364-3065",
    "Appointment Needed": "Yes",
    "Drive Through": true,
    "Latitude": 40.8937286,
    "Longitude": -73.7867161
  },
  {
    "Name": "ProHEALTH Urgent Care - Little Neck",
    "Address": "254-61 Nassau Blvd, Little Neck, NY 11362",
    "State": "New York",
    "Phone": "(516) 874-0411",
    "Appointment Needed": "Yes",
    "Drive Through": true,
    "Latitude": 40.7652518,
    "Longitude": -73.7254899
  },
  {
    "Name": "NYC Health + Hospitals/Elmhurst",
    "Address": "79-01 Broadway, Elmhurst, New York, 11373",
    "Hours": "24 Hours",
    "State": "New York",
    "Phone": "(844) 692-4692",
    "Appointment Needed": "Yes",
    "Latitude": 40.7450814,
    "Longitude": -73.8857797
  },
  {
    "Name": "NYC Health + Hospitals/Bellevue",
    "Address": "462 First Avenue. New York, NY 10016",
    "State": "New York",
    "Phone": "(844) 692-4692",
    "Appointment Needed": "Yes",
    "Latitude": 40.7390729,
    "Longitude": -73.9750165
  },
  {
    "Name": "Medrite Urgent Care",
    "Address": "193 Route 59, Spring Valley, NY, 10977",
    "State": "New York",
    "Phone": "(845) 271-6300",
    "Appointment Needed": "Yes",
    "Drive Through": true,
    "Latitude": 41.0995349,
    "Longitude": -74.0204328
  },
  {
    "Name": "NYC Health + Hospitals/Gotham Health, Morrisania",
    "Address": "1225 Gerard Avenue, Bronx, New York 10452",
    "Hours": "24 Hours",
    "State": "New York",
    "Phone": "(844) 692-4690",
    "Appointment Needed": "Yes",
    "Latitude": 40.8362867,
    "Longitude": -73.9202294
  },
  {
    "Name": "NYC Health + Hospitals/Kings County",
    "Address": "451 Clarkson Avenue, Brooklyn, New York 11203",
    "Hours": "24 Hours",
    "State": "New York",
    "Phone": "844) 692-4692",
    "Appointment Needed": "Yes",
    "Latitude": 40.6568816,
    "Longitude": -73.9447075
  },
  {
    "Name": "Jones Beach State Park - Theodore Roosevelt Nature Center",
    "Address": "1 Ocean Pkwy, Wantagh, NY 11793",
    "Hours": "8A.M.- 8P.M",
    "State": "New York",
    "Phone": "(888) 364-3065",
    "Appointment Needed": "Yes",
    "Drive Through": true,
    "Latitude": 40.5957699,
    "Longitude": -73.508002
  },
  {
    "Name": "NYC Health + Hospitals/Jacobi",
    "Address": "1400 Pelham Parkway South, Bronx, New York 10461",
    "Hours": "24 Hours",
    "State": "New York",
    "Phone": "(844) 692-4692",
    "Appointment Needed": "Yes",
    "Drive Through": true,
    "Latitude": 40.8556769,
    "Longitude": -73.8462363
  },
  {
    "Name": "South Beach Behavioral Health Center",
    "Address": "777 Seaview Ave, Staten Island, NY 10305; Parking lot off Seaview Avenue",
    "Hours": "11A.M.- 7P.M",
    "State": "New York",
    "Phone": "(888) 364-3065",
    "Appointment Needed": "Yes",
    "Drive Through": true,
    "Latitude": 40.5819188,
    "Longitude": -74.0804776
  },
  {
    "Name": "Harriman State Park",
    "Address": "54 Seven Lakes Dr, Sloatsburg, NY 10974",
    "Hours": "7A.M.- 7P.M",
    "State": "New York",
    "Phone": "(888) 364-3065",
    "Appointment Needed": "Yes",
    "Drive Through": true,
    "Latitude": 41.1743962,
    "Longitude": -74.1757495
  },
  {
    "Name": "NYC Health + Hospitals/Gotham Health, Belvis",
    "Address": "545 East 142nd Street, Bronx, New York 10454",
    "Hours": "24 Hours",
    "State": "New York",
    "Phone": "(844) 692-4691",
    "Appointment Needed": "Yes",
    "Latitude": 40.8101401,
    "Longitude": -73.9157383
  },
  {
    "Name": "The Brooklyn Hospital Center",
    "Address": "121 Dekalb Ave, Brooklyn, NY 11201",
    "Hours": "8 A.M. - 7 P.M",
    "State": "New York",
    "Phone": "(718) 250-8199",
    "Appointment Needed": "Yes",
    "Latitude": 40.691265,
    "Longitude": -73.9777743
  },
  {
    "Name": "NYC Health + Hospitals/Coney Island",
    "Address": "2929 W 19th St, Brooklyn, NY, 11224",
    "Hours": "24 Hours",
    "State": "New York",
    "Phone": "(844) 692-4692",
    "Appointment Needed": "Yes",
    "Drive Through": true,
    "Latitude": 40.5757912,
    "Longitude": -73.9854519
  },
  {
    "Name": "NYC Health + Hospitals/Metropolitan",
    "Address": "1901 First Avenue, New York, New York 10029",
    "Hours": "24 Hours",
    "State": "New York",
    "Phone": "(844) 692-4692",
    "Appointment Needed": "Yes",
    "Latitude": 40.7852328,
    "Longitude": -73.945029
  },
  {
    "Name": "Stony Brook University",
    "Address": "Stony Brook, NY 11794; Stony Brook Universityâ€™s South P Lot off Stony Brook Road",
    "Hours": "7A.M.- 7P.M",
    "State": "New York",
    "Phone": "(888) 364-3065",
    "Appointment Needed": "Yes",
    "Drive Through": true,
    "Latitude": 40.8963899,
    "Longitude": -73.1264779
  },
  {
    "Name": "NYC Health + Hospitals/Harlem",
    "Address": "506 Lenox Avenue, New York, New York 10037",
    "Hours": "24 Hours",
    "State": "New York",
    "Phone": "(844) 692-4692",
    "Appointment Needed": "Yes",
    "Latitude": 40.8141699,
    "Longitude": -73.9397803
  },
  {
    "Name": "NYC Health + Hospitals/Gotham Health, Gouverneur",
    "Address": "227 Madison Street, New York, New York 10002",
    "Hours": "24 Hours",
    "State": "New York",
    "Phone": "(844) 692-4693",
    "Appointment Needed": "Yes",
    "Latitude": 40.7129754,
    "Longitude": -73.987701
  },
  {
    "Name": "Novant Health",
    "Address": "903 Randolph St, Thomasville, NC 27360",
    "Hours": "8A.M.- 5P.M",
    "State": "North Carolina",
    "Phone": "(877) 966-8268",
    "Appointment Needed": "Yes",
    "Drive Through": true,
    "Latitude": 35.8703008,
    "Longitude": -80.0731364
  },
  {
    "Name": "Novant McKee Medical",
    "Address": "3330 Siskey Pkwy, Matthews, NC 28105",
    "Hours": "8A.M.- 5P.M",
    "State": "North Carolina",
    "Phone": "(877) 966-8268",
    "Appointment Needed": "Yes",
    "Latitude": 35.0831568,
    "Longitude": -80.7281547
  },
  {
    "Name": "Novant Health Urgent Care",
    "Address": "600 Highland Oaks Dr, Winston-Salem, NC 27103",
    "Hours": "8A.M.- 5P.M",
    "State": "North Carolina",
    "Phone": "(877) 966-8268",
    "Appointment Needed": "Yes",
    "Latitude": 36.0623,
    "Longitude": -80.3022025
  },
  {
    "Name": "Novant Health Urgent Care",
    "Address": "111 Gateway Center Dr, Kernersville, NC 27284",
    "Hours": "8A.M.- 5P.M",
    "State": "North Carolina",
    "Phone": "(877) 966-8268",
    "Appointment Needed": "Yes",
    "Latitude": 36.1138833,
    "Longitude": -80.0654136
  },
  {
    "Name": "UNC Asheville Campus: Parking lot P28 on University Heights off of W.T. Weaver Boulevard, Asheville",
    "Address": "1 University Heights, Asheville, NC 28804",
    "Hours": "2P.M.- 6P.M",
    "State": "North Carolina",
    "Phone": "(828) 250-5300",
    "Appointment Needed": "Yes",
    "Drive Through": true,
    "Latitude": 35.616483,
    "Longitude": -82.56709
  },
  {
    "Name": "Craven County Health Department",
    "Address": "2818 Neuse Blvd, New Bern, NC 28562",
    "Hours": "9A.M.- 12P.M",
    "State": "North Carolina",
    "Phone": "(252) 636-4920",
    "Appointment Needed": "Yes",
    "Drive Through": true,
    "Latitude": 35.1234183,
    "Longitude": -77.0820784
  },
  {
    "Name": "Cone Health",
    "Address": "300 E. Wendover Ave.",
    "Hours": "7A.M.- 7P.M",
    "State": "North Carolina",
    "Phone": "(336) 832-7000",
    "Appointment Needed": "Yes",
    "Drive Through": true,
    "Latitude": 36.0873407,
    "Longitude": -79.7859808
  },
  {
    "Name": "Novant Health",
    "Address": "13 Medical Campus Dr, Supply, NC 28462",
    "Hours": "1P.M.- 5P.M",
    "State": "North Carolina",
    "Phone": "(877) 966-8268",
    "Appointment Needed": "Yes",
    "Drive Through": true,
    "Latitude": 34.0157609,
    "Longitude": -78.2837673
  },
  {
    "Name": "Wake County Public Health Center",
    "Address": "10 Sunnybrook Rd, Raleigh, NC 27610",
    "Hours": "8A.M.- 5P.M",
    "State": "North Carolina",
    "Phone": "(919) 212-7000",
    "Appointment Needed": "Yes",
    "Latitude": 35.7863928,
    "Longitude": -78.5865776
  },
  {
    "Name": "Biltmore Church - Arden Campus: 35 Clayton Rd, Arden",
    "Address": "35 Clayton Rd, Arden, NC 28704",
    "Hours": "2P.M.- 6P.M",
    "State": "North Carolina",
    "Phone": "(828) 250-5300",
    "Appointment Needed": "Yes",
    "Drive Through": true,
    "Latitude": 35.4884983,
    "Longitude": -82.5677797
  },
  {
    "Name": "Novant Health Lakeside Family Physicians",
    "Address": "16525 Holly Crest Ln #120, Huntersville, NC 28078",
    "Hours": "8A.M.- 5P.M",
    "State": "North Carolina",
    "Phone": "(877) 966-8268",
    "Appointment Needed": "Yes",
    "Drive Through": true,
    "Latitude": 35.4393639,
    "Longitude": -80.8647184
  },
  {
    "Name": "UNC Medical Center in Chapel Hill",
    "Address": "102 Mason Farm Rd, Chapel Hill, NC 27514",
    "State": "North Carolina",
    "Phone": "(919) 962-6637",
    "Appointment Needed": "Yes",
    "Drive Through": true,
    "Latitude": 35.9004697,
    "Longitude": -79.0562802
  },
  {
    "Name": "AdventHealth",
    "Address": "50 Hospital DrHendersonville, NC 28792",
    "Hours": "8A.M.- 5P.M",
    "State": "North Carolina",
    "Phone": "(828) 681-2300",
    "Appointment Needed": "Yes",
    "Drive Through": true,
    "Latitude": 35.3893876,
    "Longitude": -82.4874165
  },
  {
    "Name": "UNC Medical Center in Chapel Hill",
    "Address": "102 Mason Farm Rd, Chapel Hill, NC 27514102 Mason Farm Rd, Chapel Hill, NC 27514",
    "State": "North Carolina",
    "Phone": "(919) 962-6637",
    "Appointment Needed": "Yes",
    "Drive Through": true,
    "Latitude": 35.90054,
    "Longitude": -79.0562893
  },
  {
    "Name": "Novant Health",
    "Address": "315 Mocksville Ave, Salisbury, NC 28144",
    "Hours": "8A.M.- 5P.M",
    "State": "North Carolina",
    "Phone": "(877) 966-8268",
    "Appointment Needed": "Yes",
    "Drive Through": true,
    "Latitude": 35.6785845,
    "Longitude": -80.4717169
  },
  {
    "Name": "Sanford Health",
    "Address": "1720 University Drive S. Fargo, North Dakota 58103",
    "State": "North Dakota",
    "Phone": "(701) 234-2000",
    "Appointment Needed": "Yes",
    "Drive Through": true,
    "Latitude": 46.8528197,
    "Longitude": -96.797494
  },
  {
    "Name": "University Hospitals Landerbrook Mayfield Heights",
    "Address": "5850 Landerbrook Dr, Mayfield Heights, OH 44124",
    "Hours": "11A.M. - 5P.M",
    "State": "Ohio",
    "Appointment Needed": "Yes",
    "Drive Through": true,
    "Latitude": 41.5032141,
    "Longitude": -81.468975
  },
  {
    "Name": "Cleveland Clinic - Main Campus",
    "Address": "W.O. Walker Building, 10524 Euclid Ave., Cleveland, OH, 44195",
    "Hours": "11A.M. - 5P.M",
    "State": "Ohio",
    "Phone": "(216) 444-2200",
    "Appointment Needed": "Yes",
    "Latitude": 41.502864,
    "Longitude": -81.613118
  },
  {
    "Name": "University of Cincinnati, Clifton Campus",
    "Address": "West Professional Building, 3120 Burnet Ave, Cincinnati, OH 45229",
    "Hours": "7A.M.- 7P.M",
    "State": "Ohio",
    "Appointment Needed": "Yes",
    "Drive Through": true,
    "Latitude": 39.1358539,
    "Longitude": -84.5004572
  },
  {
    "Name": "MetroHealth Medical Center",
    "Address": "2500 Metrohealth Dr, Cleveland, OH 44109",
    "Hours": "11A.M. - 5P.M",
    "State": "Ohio",
    "Phone": "(440) 592-6843",
    "Appointment Needed": "Yes",
    "Latitude": 41.4622606,
    "Longitude": -81.697669
  },
  {
    "Name": "University of Dayton Arena Parking Lot",
    "Address": "1801 Edwin C. Moses Blvd., Dayton, OH, 45417",
    "Hours": "10A.M. - 6P.M",
    "State": "Ohio",
    "Appointment Needed": "Yes",
    "Drive Through": true,
    "Latitude": 39.7348425,
    "Longitude": -84.1995923
  },
  {
    "Name": "Access Solutions Medical Group - Sand Springs",
    "Address": "3905 South Highway 97 Sand Springs, OK 74063",
    "Hours": "10A.M. - 6P.M",
    "State": "Oklahoma",
    "Phone": "(918) 245-7500",
    "Appointment Needed": "Yes",
    "Drive Through": true,
    "Latitude": 36.1062549,
    "Longitude": -96.1163917
  },
  {
    "Name": "Access Solutions Medical Group - Okmulgee",
    "Address": "100 W 7th st Okmulgee, OK 74447",
    "State": "Oklahoma",
    "Phone": "(918) 759-2200",
    "Appointment Needed": "Yes",
    "Drive Through": true,
    "Latitude": 35.6222488,
    "Longitude": -95.9719231
  },
  {
    "Name": "Access Family Medical",
    "Address": "6030 South 66th East Avenue Tulsa, OK 74145",
    "Hours": "10A.M. - 6P.M",
    "State": "Oklahoma",
    "Phone": "(918) 508-7440",
    "Appointment Needed": "Yes",
    "Drive Through": true,
    "Latitude": 36.0757247,
    "Longitude": -95.9031553
  },
  {
    "Name": "Providence Medford Memorial Hospital",
    "Address": "1111 Crater Lake Ave Medford, OR 97504",
    "Hours": "24 hours",
    "State": "Oregon",
    "Phone": "(541) 732-5000",
    "Appointment Needed": "Yes",
    "Latitude": 42.3397292,
    "Longitude": -122.8633109
  },
  {
    "Name": "Providence Newberg Memorial Hospital",
    "Address": "1001 Providence Drive Newberg, OR 97132",
    "Hours": "24 hours",
    "State": "Oregon",
    "Phone": "(503) 537-1555",
    "Appointment Needed": "Yes",
    "Latitude": 45.308108,
    "Longitude": -122.9359413
  },
  {
    "Name": "Providence Willamette Memorial Hospital",
    "Address": "1500 Division St. Oregon City, OR 97045",
    "Hours": "10A.M. - 6P.M",
    "State": "Oregon",
    "Phone": "(503) 656-1631",
    "Appointment Needed": "Yes",
    "Latitude": 45.3561465,
    "Longitude": -122.587139
  },
  {
    "Name": "Providence St. Vincent Memorial Hospital",
    "Address": "9205 SW Barnes Rd. Portland, OR 97225",
    "Hours": "24 hours",
    "State": "Oregon",
    "Phone": "(503) 216-1234",
    "Appointment Needed": "Yes",
    "Latitude": 45.5104377,
    "Longitude": -122.7716281
  },
  {
    "Name": "Providence Milwuakie Memorial Hospital",
    "Address": "10150 SE 32nd Ave Milwaukie, OR 97222",
    "Hours": "10A.M. - 6P.M",
    "State": "Oregon",
    "Phone": "(503) 513-8300",
    "Appointment Needed": "Yes",
    "Latitude": 45.4492796,
    "Longitude": -122.6274783
  },
  {
    "Name": "Providence Hood River Memorial Hospital",
    "Address": "810 12th St. Hood River, OR 97031",
    "Hours": "24 hours",
    "State": "Oregon",
    "Phone": "(541) 386-3911",
    "Appointment Needed": "Yes",
    "Latitude": 45.7048772,
    "Longitude": -121.5244749
  },
  {
    "Name": "Providence Seaside Memorial Hospital",
    "Address": "725 S Wahanna Rd. Seaside, OR 97138",
    "Hours": "7A.M.- 7P.M",
    "State": "Oregon",
    "Phone": "(503) 717-7000",
    "Appointment Needed": "Yes",
    "Latitude": 45.9889888,
    "Longitude": -123.9116566
  },
  {
    "Name": "Providence Portland Memorial Hospital",
    "Address": "4805 NE Glisan St. Portland, OR 97213",
    "Hours": "24 hours",
    "State": "Oregon",
    "Phone": "(503) 215-1111",
    "Appointment Needed": "Yes",
    "Latitude": 45.5279161,
    "Longitude": -122.6132094
  },
  {
    "Name": "Central Outreach Wellness Center - Washington",
    "Address": "95 Leonard Ave, Suite 203, Washington, PA 15301",
    "Hours": "8A.M.- 5P.M",
    "State": "Pennsylvania",
    "Phone": "(724) 249-2517",
    "Appointment Needed": "Yes",
    "Drive Through": true,
    "Latitude": 40.1819854,
    "Longitude": -80.2407949
  },
  {
    "Name": "Lancaster General Health",
    "Address": "555 N. Duke Street, Lancaster, PA 17602",
    "Hours": "24 hours",
    "State": "Pennsylvania",
    "Phone": "(267) 785-8585",
    "Appointment Needed": "Yes",
    "Latitude": 40.047027,
    "Longitude": -76.3040232
  },
  {
    "Name": "Abington Hospital - Jefferson Health",
    "Address": "1200 Old York Rd, Abington, PA 19001",
    "Hours": "8A.M.- 5P.M",
    "State": "Pennsylvania",
    "Appointment Needed": "Yes",
    "Latitude": 40.119158,
    "Longitude": -75.11986
  },
  {
    "Name": "Central Outreach Wellness Center",
    "Address": "2360 Hospital Drive, Upper Suite 1, Aliquippa, PA 15001",
    "Hours": "11A.M. - 4P.M",
    "State": "Pennsylvania",
    "Phone": "(724) 707-1155",
    "Appointment Needed": "Yes",
    "Drive Through": true,
    "Latitude": 40.6118346,
    "Longitude": -80.2867039
  },
  {
    "Name": "Children's Hospital of Philadelphia",
    "Address": "3401 Civic Center Blvd, Philadelphia, PA 19104",
    "State": "Pennsylvania",
    "Phone": "(800) 722-7112",
    "Appointment Needed": "Yes",
    "Latitude": 39.9487265,
    "Longitude": -75.1943904
  },
  {
    "Name": "University of Pennsylvania Health System - West Philadelphia",
    "Address": "4122 Market St, Philadelphia, PA 19104; Parking Lot at 41st and Market Streets",
    "Hours": "8A.M.- 5P.M",
    "State": "Pennsylvania",
    "Phone": "(267) 414-2303",
    "Appointment Needed": "Yes",
    "Drive Through": true,
    "Latitude": 39.9571828,
    "Longitude": -75.2049202
  },
  {
    "Name": "Main Line Health - Newton Square",
    "Address": "3855 West Chester Pike, Newtown Square, PA 19073",
    "State": "Pennsylvania",
    "Phone": "(866) 225-5654",
    "Appointment Needed": "Yes",
    "Drive Through": true,
    "Latitude": 39.9871366,
    "Longitude": -75.4103449
  },
  {
    "Name": "Penn Medicine Radnor",
    "Address": "201 King of Prussia Rd, Radnor, PA 19087, North Parking Lot (across from the Radnor train station)",
    "State": "Pennsylvania",
    "Phone": "(267) 414-2303",
    "Appointment Needed": "Yes",
    "Drive Through": true,
    "Latitude": 40.0437927,
    "Longitude": -75.3570679
  },
  {
    "Name": "Rite Aid",
    "Address": "7401 Ogontz Ave., Philadelphia, PA 19138",
    "Hours": "8A.M.- 5P.M",
    "State": "Pennsylvania",
    "Appointment Needed": "Yes",
    "Drive Through": true,
    "Latitude": 40.0675236,
    "Longitude": -75.1561078
  },
  {
    "Name": "Hospital of the University of Pennsylvania",
    "Address": "3400 Spruce Street, Philadelphia, PA 19104",
    "Hours": "24 hours",
    "State": "Pennsylvania",
    "Phone": "(267) 785-8585",
    "Appointment Needed": "Yes",
    "Latitude": 39.950044,
    "Longitude": -75.193131
  },
  {
    "Name": "Jefferson Frankford Hospital",
    "Address": "4900 Frankford Ave, Philadelphia, PA 19124",
    "Hours": "8A.M.- 5P.M",
    "State": "Pennsylvania",
    "Phone": "(215) 831-2000",
    "Appointment Needed": "Yes",
    "Drive Through": true,
    "Latitude": 40.019879,
    "Longitude": -75.0816014
  },
  {
    "Name": "Jefferson Torresdale Hospital",
    "Address": "10800 Knights Rd, Philadelphia, PA 19114",
    "Hours": "8A.M.- 5P.M",
    "State": "Pennsylvania",
    "Phone": "(215) 612-4000",
    "Appointment Needed": "Yes",
    "Drive Through": true,
    "Latitude": 40.0716695,
    "Longitude": -74.9832205
  },
  {
    "Name": "Chester County Hospital",
    "Address": "701 E. Marshall Street, West Chester, PA 19380",
    "Hours": "24 hours",
    "State": "Pennsylvania",
    "Phone": "(267) 785-8585\n",
    "Appointment Needed": "Yes",
    "Latitude": 39.9718867,
    "Longitude": -75.6022585
  },
  {
    "Name": "Penn Medicine Radnor",
    "Address": "4122 Market St. Parking Lot, Philadelphia, PA 19104",
    "State": "Pennsylvania",
    "Phone": "(267) 414-2303",
    "Appointment Needed": "Yes",
    "Drive Through": true,
    "Latitude": 39.9571828,
    "Longitude": -75.2049202
  },
  {
    "Name": "Temple University Ambler Campus",
    "Address": "1440 East Butler Pike, Ambler, PA 19002; Approximately 100 feet northeast of the Community Ambulance Association of Ambler parking lot.",
    "Hours": "8A.M.- 5P.M",
    "State": "Pennsylvania",
    "Phone": "(610) 631-3000",
    "Appointment Needed": "Yes",
    "Drive Through": true,
    "Latitude": 40.1688478,
    "Longitude": -75.202612
  },
  {
    "Name": "Jefferson Health - Roosevelt Boulevard",
    "Address": "2451 Grant Ave, Philadelphia, PA 19114",
    "Hours": "8A.M.- 5P.M",
    "State": "Pennsylvania",
    "Appointment Needed": "Yes",
    "Drive Through": true,
    "Latitude": 40.0804412,
    "Longitude": -75.0263406
  },
  {
    "Name": "Jefferson University Hospital - Center City",
    "Address": "111 S 11th St, Philadelphia, PA 19107",
    "Hours": "8A.M.- 5P.M",
    "State": "Pennsylvania",
    "Phone": "(800) 533-3669",
    "Appointment Needed": "Yes",
    "Drive Through": true,
    "Latitude": 39.9498567,
    "Longitude": -75.1583793
  },
  {
    "Name": "Pennsylvania Hospital",
    "Address": "800 Spruce Street, Philadelphia, PA 19107",
    "Hours": "24 hours",
    "State": "Pennsylvania",
    "Phone": "(267) 785-8585",
    "Appointment Needed": "Yes",
    "Latitude": 39.9454379,
    "Longitude": -75.155587
  },
  {
    "Name": "Central Outreach Wellness Center - North Shore Location",
    "Address": "127 Anderson Street, Suite 101 Timber Court Building, Pittsburgh, PA 15212",
    "Hours": "11A.M. - 4P.M",
    "State": "Pennsylvania",
    "Phone": "(412) 515-0000",
    "Appointment Needed": "Yes",
    "Drive Through": true,
    "Latitude": 40.4486935,
    "Longitude": -80.0010388
  },
  {
    "Name": "Penn Presbyterian Medical Center",
    "Address": "51 N. 39th Street, Philadelphia, PA 19104",
    "Hours": "24 hours",
    "State": "Pennsylvania",
    "Phone": "(267) 785-8585",
    "Appointment Needed": "Yes",
    "Latitude": 39.958494,
    "Longitude": -75.1984936
  },
  {
    "Name": "Citizens Bank Park",
    "Address": "1 Citizens Bank Way, Philadelphia, PA 19148",
    "Hours": "8A.M.- 5P.M",
    "State": "Pennsylvania",
    "Appointment Needed": "Yes",
    "Drive Through": true,
    "Latitude": 39.9059929,
    "Longitude": -75.1666401
  },
  {
    "Name": "Pittsburgh Zoo & PPG Aquarium",
    "Address": "7370 Baker Street, Pittsburgh, PA 15206",
    "Hours": "11A.M. - 4P.M",
    "State": "Pennsylvania",
    "Appointment Needed": "Yes",
    "Drive Through": true,
    "Latitude": 40.4875913,
    "Longitude": -79.9201012
  },
  {
    "Name": "Chester County Hospital",
    "Address": "701 E. Marshall Street, West Chester, PA 19380",
    "State": "Pennsylvania",
    "Phone": "610-431-5000",
    "Main Website": "https://www.pennmedicine.org/for-patients-and-visitors/penn-medicine-locations/chester-county-hospital",
    "Appointment Needed": "Yes",
    "Latitude": 39.9718867,
    "Longitude": -75.6022585
  },
  {
    "Name": "Lancaster General Health",
    "Address": "555 N. Duke Street, Lancaster, PA 17602",
    "State": "Pennsylvania",
    "Phone": "888-544-4636",
    "Main Website": "https://www.pennmedicine.org/for-patients-and-visitors/penn-medicine-locations/lancaster-general-health",
    "Appointment Needed": "Yes",
    "Latitude": 40.047027,
    "Longitude": -76.3040232
  },
  {
    "Name": "MUSC Health - Lancaster",
    "Address": "800 West Meeting Street Lancaster, SC 29720",
    "Hours": "8A.M.- 5P.M",
    "State": "South Carolina",
    "Phone": "(803) 286-1214",
    "Appointment Needed": "Yes",
    "Drive Through": true,
    "Latitude": 34.7174247,
    "Longitude": -80.7877141
  },
  {
    "Name": "MUSC Health West Ashley Medical Pavilion",
    "Address": "2060 Sam Rittenberg Blvd, Charleston, SC 29407",
    "Hours": "8A.M.- 5P.M",
    "State": "South Carolina",
    "Phone": "(843) 792-1414",
    "Appointment Needed": "Yes",
    "Drive Through": true,
    "Latitude": 32.7976405,
    "Longitude": -80.0304129
  },
  {
    "Name": "Prisma Health Richland Hospital North Portal",
    "Address": "5 Richland Medical Park Dr. Columbia, SC 29203",
    "Hours": "8A.M.- 5P.M",
    "State": "South Carolina",
    "Phone": "(803) 434-7000",
    "Appointment Needed": "Yes",
    "Drive Through": true,
    "Latitude": 34.0279493,
    "Longitude": -81.0333789
  },
  {
    "Name": "Prisma Health Greenville Memorial Medical Campus",
    "Address": "701 Grove Rd, Greenville, SC 29605",
    "Hours": "8A.M.- 5P.M",
    "State": "South Carolina",
    "Phone": "(864) 455-7000",
    "Appointment Needed": "Yes",
    "Drive Through": true,
    "Latitude": 34.8192557,
    "Longitude": -82.411677
  },
  {
    "Name": "Monument Health Urgent Care West",
    "Address": "2116 Jackson Blvd. Rapid City, SD 57702",
    "Hours": "8A.M.- 5P.M",
    "State": "South Dakota",
    "Phone": "(800) 279-1466",
    "Appointment Needed": "Yes",
    "Drive Through": true,
    "Latitude": 44.073423,
    "Longitude": -103.2546021
  },
  {
    "Name": "East Tennessee Medical Group",
    "Address": "266 Joule St, Alcoa, TN 37701",
    "Hours": "8A.M.- 5P.M",
    "State": "Tennessee",
    "Phone": "(865) 984-3864",
    "Appointment Needed": "Yes",
    "Drive Through": true,
    "Latitude": 35.7675197,
    "Longitude": -83.9779812
  },
  {
    "Name": "Baylor Scott & White Clinic â€“ Temple",
    "Address": "2401 S 31st St., Temple TX 76508",
    "Hours": "8A.M.- 5P.M",
    "Latitude": 31.0776472,
    "Longitude": -97.3639792,
    "State": "Texas",
    "Phone": "(254) 724-2111",
    "Appointment Needed": "Yes",
    "Drive Through": true
  },
  {
    "Name": "South Texas Medical Center",
    "Address": "8431 Fredericksburg Rd, San Antonio, TX 78229",
    "Hours": "24 hours",
    "Latitude": 29.5186253,
    "Longitude": -98.573604,
    "State": "Texas",
    "Phone": "(210) 230-6799",
    "Appointment Needed": "Yes"
  },
  {
    "Name": "Sinai Urgent Care",
    "Address": "18101 Preston Road #201, Dallas, TX 75252",
    "Hours": "9A.M.- 9P.M",
    "Latitude": 32.9987735,
    "Longitude": -96.7990149,
    "State": "Texas",
    "Phone": "(972) 584-9554",
    "Appointment Needed": "Yes"
  },
  {
    "Name": "Legacy Community Health Fifth Ward",
    "Address": "3811 Lyons Ave, Houston, TX 77020",
    "Hours": "8A.M.- 5P.M",
    "Latitude": 29.7762164,
    "Longitude": -95.3315818,
    "State": "Texas",
    "Phone": "(832) 548-5400",
    "Appointment Needed": "Yes"
  },
  {
    "Name": "Legacy Community Health",
    "Address": "1415 California Street, Houston, TX 77006",
    "Hours": "9A.M.- 9P.M",
    "Latitude": 29.7450095,
    "Longitude": -95.3940369,
    "State": "Texas",
    "Phone": "(832) 548-5000",
    "Appointment Needed": "Yes"
  },
  {
    "Name": "Neighborhood Medical Center",
    "Address": "5917 Belt Line Rd, Dallas, Texas 75254",
    "Hours": "10A.M.- 2P.M",
    "Latitude": 32.9548283,
    "Longitude": -96.8056286,
    "State": "Texas",
    "Phone": "(972) 726-6464",
    "Appointment Needed": "Yes",
    "Drive Through": true
  },
  {
    "Name": "Baylor Scott & White Clinic â€“ Round Rock 425 University",
    "Address": "425 University Blvd. Round Rock, TX 78665",
    "Hours": "9A.M.- 5P.M",
    "Latitude": 30.5587911,
    "Longitude": -97.6810101,
    "State": "Texas",
    "Phone": "(512) 509-0200",
    "Appointment Needed": "Yes",
    "Drive Through": true
  },
  {
    "Name": "Legacy Community Health Southwest",
    "Address": "6441 High Star Dr, Houston, TX 77074",
    "Hours": "8A.M.- 5P.M",
    "Latitude": 29.7104087,
    "Longitude": -95.4955902,
    "State": "Texas",
    "Phone": "(832) 548-5300",
    "Appointment Needed": "Yes"
  },
  {
    "Name": "My Family Doctor Houston COVID19DRIVETHRU",
    "Address": "6430 Hillcroft Ave., Houston, TX 77081",
    "Hours": "8A.M.- 5P.M",
    "Latitude": 29.7113802,
    "Longitude": -95.4940287,
    "State": "Texas",
    "Appointment Needed": "Yes",
    "Drive Through": true
  },
  {
    "Name": "Legacy Community Health Central Beaumont",
    "Address": "450 N 11th St, Beaumont, TX 77702",
    "Hours": "8A.M.- 5P.M",
    "Latitude": 30.0850398,
    "Longitude": -94.1294277,
    "State": "Texas",
    "Phone": "(409) 242-2577",
    "Appointment Needed": "Yes"
  },
  {
    "Name": "Baylor Scott & White Clinic - Austin Oak Hill",
    "Address": "5251 W. U.S. Highway 290, Austin, TX 78735",
    "Hours": "9A.M.- 5P.M",
    "Latitude": 30.2355777,
    "Longitude": -97.8355459,
    "State": "Texas",
    "Phone": "(512) 654-3000",
    "Appointment Needed": "Yes",
    "Drive Through": true
  },
  {
    "Name": "American Airlines Center - Parking Lot",
    "Address": "2500 Victory Plaza, Dallas, TX 75201",
    "Hours": "8A.M.- 8P.M",
    "Latitude": 32.7903143,
    "Longitude": -96.810148,
    "State": "Texas",
    "Appointment Needed": "Yes",
    "Drive Through": true
  },
  {
    "Name": "Shannon Medical Center",
    "Address": "Beauregard Avenue and Oaks Street, San Angelo, TX 76903",
    "Hours": "9A.M.- 5P.M",
    "Latitude": 31.4631277,
    "Longitude": -100.4348951,
    "State": "Texas",
    "Phone": "(844) 674-2666",
    "Appointment Needed": "Yes",
    "Drive Through": true
  },
  {
    "Name": "Medical City Healthcare",
    "Address": "13155 Noel Rd. Suite 2000 Dallas, TX 75240",
    "Hours": "24 hours",
    "Latitude": 32.9270565,
    "Longitude": -96.8186519,
    "State": "Texas",
    "Appointment Needed": "Yes"
  },
  {
    "Name": "United Memorial Medical Center",
    "Address": "510 W. Tidwell Rd, Houston, TX 77091",
    "Hours": "8A.M.- 8P.M",
    "Latitude": 29.8479504,
    "Longitude": -95.408471,
    "State": "Texas",
    "Phone": "(281) 618-8500",
    "Appointment Needed": "Yes",
    "Drive Through": true
  },
  {
    "Name": "Parkland Health and Hospital System",
    "Address": "5201 Harry Hines Blvd, Dallas, TX 75235",
    "Hours": "24 hours",
    "Latitude": 32.8106032,
    "Longitude": -96.8376408,
    "State": "Texas",
    "Phone": "(214) 590-8060",
    "Appointment Needed": "Yes",
    "Drive Through": true
  },
  {
    "Name": "Ellis Davis Field House",
    "Address": "9191 S. Polk St, Dallas, TX 75232",
    "Hours": "8A.M.- 8P.M",
    "Latitude": 32.6373547,
    "Longitude": -96.8422444,
    "State": "Texas",
    "Appointment Needed": "Yes",
    "Drive Through": true
  },
  {
    "Name": "Redwood Health Center",
    "Address": "1525 West 2100 South, Salt Lake City UT 84119",
    "Hours": "8A.M.- 8P.M",
    "Latitude": 40.725039,
    "Longitude": -111.9332457,
    "State": "Utah",
    "Phone": "(801) 213-9900",
    "Appointment Needed": "Yes"
  },
  {
    "Name": "Sugar House Health Center",
    "Address": "1280 E. Stringham Avenue, Salt Lake City UT 84106",
    "Hours": "8A.M.- 8P.M",
    "Latitude": 40.7209251,
    "Longitude": -111.8548992,
    "State": "Utah",
    "Phone": "(801) 581-2000",
    "Appointment Needed": "Yes"
  },
  {
    "Name": "Farmington Health Center",
    "Address": "165 N. University Ave, Farmington UT 84025",
    "Hours": "8A.M.- 8P.M",
    "Latitude": 40.9836783,
    "Longitude": -111.9106092,
    "State": "Utah",
    "Phone": "(801) 213-3200",
    "Appointment Needed": "Yes"
  },
  {
    "Name": "Greenwood Health Center",
    "Address": "7495 S. State Street, Midvale UT 84047",
    "Hours": "8A.M.- 8P.M",
    "Latitude": 40.6157015,
    "Longitude": -111.8897425,
    "State": "Utah",
    "Phone": "(801) 213-9400",
    "Appointment Needed": "Yes"
  },
  {
    "Name": "Centerville Health Center",
    "Address": "26 S. Main Street, Centerville UT 84014",
    "Hours": "8A.M.- 8P.M",
    "Latitude": 40.9170578,
    "Longitude": -111.8796351,
    "State": "Utah",
    "Phone": "(801) 693-7900",
    "Appointment Needed": "Yes"
  },
  {
    "Name": "South Jordan Health Center",
    "Address": "5126 W. Daybreak Parkway, South Jordan UT 84009",
    "Hours": "8A.M.- 8P.M",
    "Latitude": 40.5419193,
    "Longitude": -112.0132434,
    "State": "Utah",
    "Phone": "(801) 213-4500",
    "Appointment Needed": "Yes"
  },
  {
    "Name": "University of Utah Hospital",
    "Address": "50 N. Medical Drive, Salt Lake City UT 84132",
    "Hours": "8A.M.- 8P.M",
    "Latitude": 40.7716956,
    "Longitude": -111.836808,
    "State": "Utah",
    "Phone": "(801) 581-2121",
    "Appointment Needed": "Yes"
  },
  {
    "Name": "Davis Hospital and Medical Center",
    "Address": "1600 W Antelope Drive, Layton, Utah 84041",
    "Hours": "9A.M.- 5P.M",
    "Latitude": 41.091222,
    "Longitude": -111.995128,
    "State": "Utah",
    "Phone": "(801) 807-1000",
    "Appointment Needed": "Yes",
    "Drive Through": true
  },
  {
    "Name": "Westridge Health Center",
    "Address": "3730 W. 4700 S., West Valley City UT 84129",
    "Hours": "8A.M.- 8P.M",
    "Latitude": 40.6684162,
    "Longitude": -111.9797168,
    "State": "Utah",
    "Phone": "(801) 213-9200",
    "Appointment Needed": "Yes"
  },
  {
    "Name": "Jordan Valley Medical Center",
    "Address": "3580 West 9000 South, West Jordan, Utah 84088\n",
    "Hours": "9A.M.- 5P.M",
    "Latitude": 40.5879884,
    "Longitude": -111.975367,
    "State": "Utah",
    "Phone": "(801) 561-8888",
    "Appointment Needed": "Yes",
    "Drive Through": true
  },
  {
    "Name": "Redstone Health Center",
    "Address": "1743 W. Redstone Center Dr., Park City UT 84098",
    "Hours": "8A.M.- 8P.M",
    "Latitude": 40.7206561,
    "Longitude": -111.5433833,
    "State": "Utah",
    "Phone": "(435) 658-9200",
    "Appointment Needed": "Yes"
  },
  {
    "Name": "Mountain Point Medical Center",
    "Address": "3000 N Triumph Blvd, Lehi, Utah 84043",
    "Hours": "9A.M.- 5P.M",
    "Latitude": 40.4252728,
    "Longitude": -111.8785638,
    "State": "Utah",
    "Phone": "(385) 345-3000",
    "Appointment Needed": "Yes",
    "Drive Through": true
  },
  {
    "Name": "Parkway Health Center",
    "Address": "145 W. University Parkway, Orem UT 84058",
    "Hours": "8A.M.- 8P.M",
    "Latitude": 40.2727751,
    "Longitude": -111.698771,
    "State": "Utah",
    "Phone": "(801) 234-8600",
    "Appointment Needed": "Yes"
  },
  {
    "Name": "Southwestern Vermont Medical Center",
    "Address": "100 Hospital Dr, Bennington, VT 05201",
    "Hours": "9A.M.- 5P.M",
    "Latitude": 42.87397,
    "Longitude": -73.207393,
    "State": "Vermont",
    "Phone": "(802) 442-6361",
    "Appointment Needed": "Yes",
    "Drive Through": true
  },
  {
    "Name": "Porter Hospital",
    "Address": "115 Porter Dr, Middlebury, VT 05753",
    "Hours": "9A.M.- 5P.M",
    "Latitude": 43.9997267,
    "Longitude": -73.1684387,
    "State": "Vermont",
    "Phone": "(802) 388-4701",
    "Appointment Needed": "Yes",
    "Drive Through": true
  },
  {
    "Name": "University of Vermont Health Network - Elizabethtown Community Hospital",
    "Address": "75 Park St, Elizabethtown, NY 12932",
    "Hours": "24 Hours",
    "Latitude": 44.215833,
    "Longitude": -73.595909,
    "State": "Vermont",
    "Phone": "(518) 873-6377",
    "Appointment Needed": "Yes",
    "Drive Through": true
  },
  {
    "Name": "Champlain Valley Expo",
    "Address": "105 Pearl St, Essex Junction, VT 05452",
    "Hours": "9A.M.- 5P.M",
    "Latitude": 44.4971758,
    "Longitude": -73.1220749,
    "State": "Vermont",
    "Phone": "(802) 878-5545",
    "Appointment Needed": "Yes",
    "Drive Through": true
  },
  {
    "Name": "Virginia Hospital Center (VHC)",
    "Address": "1429 N. Quincy Street, Arlington, VA 22207",
    "Hours": "9A.M.- 5P.M",
    "Latitude": 38.889278,
    "Longitude": -77.106645,
    "State": "Virginia",
    "Phone": "(703) 558-5766",
    "Appointment Needed": "Yes",
    "Drive Through": true
  },
  {
    "Name": "Sentara Edinburgh Diagnostic Center",
    "Address": "1933 Edwin Drive, Chesapeake, VA 23322",
    "Hours": "9A.M.- 5P.M",
    "Latitude": 36.6526974,
    "Longitude": -76.2306666,
    "State": "Virginia",
    "Phone": "(757) 252-5815",
    "Appointment Needed": "Yes",
    "Drive Through": true
  },
  {
    "Name": "Sentara Princess Anne Hospital",
    "Address": "2025 Glenn Mitchell Drive, Virginia Beach, VA 23456",
    "Hours": "9A.M.- 5P.M",
    "Latitude": 36.7753343,
    "Longitude": -76.0978916,
    "State": "Virginia",
    "Phone": "(757) 507-1000",
    "Appointment Needed": "Yes",
    "Drive Through": true
  },
  {
    "Name": "Sentara Williamsburg Regional Medical Center",
    "Address": "100 Sentara Circle, Williamsburg, VA 23188",
    "Hours": "9A.M.- 5P.M",
    "Latitude": 37.3366689,
    "Longitude": -76.7410608,
    "State": "Virginia",
    "Phone": "(757) 984-6000",
    "Appointment Needed": "Yes",
    "Drive Through": true
  },
  {
    "Name": "St. Clare Hospital",
    "Address": "11315 Bridgeport Way SW, Lakewood, WA",
    "Hours": "24 Hours",
    "Latitude": 47.1545124,
    "Longitude": -122.5019772,
    "State": "Washington",
    "Phone": "(253) 985-1711",
    "Appointment Needed": "Yes"
  },
  {
    "Name": "Franciscan Medical Pavilion",
    "Address": "9230 Sky Island Dr. E Bonney Lake, WA",
    "Hours": "8A.M.- 8P.M",
    "Latitude": 47.1734826,
    "Longitude": -122.183164,
    "State": "Washington",
    "Phone": "(253) 750-6000",
    "Appointment Needed": "Yes"
  },
  {
    "Name": "Harrison Port Orchard Urgent Care",
    "Address": "450 S. Kitsap Blvd, Port Orchard, WA",
    "Hours": "8A.M.- 8P.M",
    "Latitude": 47.5222007,
    "Longitude": -122.6562247,
    "State": "Washington",
    "Phone": "(360) 744-6275",
    "Appointment Needed": "Yes"
  },
  {
    "Name": "Franciscan Prompt Care",
    "Address": "4700 Pt. Fosdick Dr N.W., Gig Harbor, WA",
    "Hours": "8A.M.- 8P.M",
    "Latitude": 47.3004891,
    "Longitude": -122.5812491,
    "State": "Washington",
    "Phone": "(253) 853-2050",
    "Appointment Needed": "Yes"
  },
  {
    "Name": "Franciscan Prompt Care",
    "Address": "16045 1st Avenue South, Burien, WA",
    "Hours": "8A.M.- 8P.M",
    "Latitude": 47.4585642,
    "Longitude": -122.3339504,
    "State": "Washington",
    "Phone": "(206) 965-4180",
    "Appointment Needed": "Yes"
  },
  {
    "Name": "Harrison Belfair Urgent Care",
    "Address": "21 N.E Romance Hill Rd, Belfair, WA",
    "Hours": "8A.M.- 8P.M",
    "Latitude": 47.4467721,
    "Longitude": -122.8295284,
    "State": "Washington",
    "Phone": "(360) 277-2975",
    "Appointment Needed": "Yes"
  },
  {
    "Name": "St. Elizabeth Hospital",
    "Address": "1455 Battersby Ave, Enumclaw, WA",
    "Hours": "8A.M.- 8P.M",
    "Latitude": 47.2092977,
    "Longitude": -121.9877606,
    "State": "Washington",
    "Phone": "(360) 802-8800",
    "Appointment Needed": "Yes"
  },
  {
    "Name": "Highline Medical Center",
    "Address": "16251 Sylvester Rd SW, Burien, WA",
    "Hours": "8A.M.- 8P.M",
    "Latitude": 47.457487,
    "Longitude": -122.343248,
    "State": "Washington",
    "Phone": "(206) 244-9970",
    "Appointment Needed": "Yes"
  },
  {
    "Name": "St. Francis Hospital",
    "Address": "34515 9th Ave S, Federal Way, WA",
    "Hours": "8A.M.- 8P.M",
    "Latitude": 47.2926018,
    "Longitude": -122.3272208,
    "State": "Washington",
    "Phone": "(253) 835-8100",
    "Appointment Needed": "Yes"
  },
  {
    "Name": "Franciscan Medical Clinic",
    "Address": "3021 Griffin Ave, Enumclaw, WA",
    "Hours": "8A.M.- 8P.M",
    "Latitude": 47.2074672,
    "Longitude": -122.0087362,
    "State": "Washington",
    "Phone": "(360) 825-6511",
    "Appointment Needed": "Yes"
  },
  {
    "Name": "Franciscan Prompt Care at St. Joseph",
    "Address": "1812 South J Street, Tacoma, WA",
    "Hours": "8A.M.- 8P.M",
    "Latitude": 47.244421,
    "Longitude": -122.4495477,
    "State": "Washington",
    "Phone": "(253) 428-2200",
    "Appointment Needed": "Yes"
  },
  {
    "Name": "The Doctors Clinic Ridgetop East",
    "Address": "9621 Ridgetop Blvd NW, Silverdale, WA",
    "Hours": "8A.M.- 8P.M",
    "Latitude": 47.6543772,
    "Longitude": -122.6775411,
    "State": "Washington",
    "Phone": "(360) 782-3400",
    "Appointment Needed": "Yes"
  },
  {
    "Name": "Harrison Medical Center",
    "Address": "1800 NW Myhre Rd, Silverdale, WA",
    "Hours": "24 Hours",
    "Latitude": 47.655322,
    "Longitude": -122.6752865,
    "State": "Washington",
    "Phone": "(360) 744-8800",
    "Appointment Needed": "Yes"
  },
  {
    "Name": "Franciscan Medical Clinic",
    "Address": "1344 Wintergreen Lane NE, Bainbridge Island, WA",
    "Hours": "8A.M.- 8P.M",
    "Latitude": 47.637979,
    "Longitude": -122.513865,
    "State": "Washington",
    "Phone": "(206) 855-7500",
    "Appointment Needed": "Yes"
  },
  {
    "Name": "Franciscan Medical Pavilion",
    "Address": "15214 Canyon Road E, Puyallup, WA",
    "Hours": "8A.M.- 8P.M",
    "Latitude": 47.117829,
    "Longitude": -122.3581788,
    "State": "Washington",
    "Phone": "(253) 539-4200",
    "Appointment Needed": "Yes"
  },
  {
    "Name": "St. Anthony Hospital",
    "Address": "11567 Canterwood Blvd, Gig Harbor, WA",
    "Hours": "24 Hours",
    "Latitude": 47.3644245,
    "Longitude": -122.6134684,
    "State": "Washington",
    "Phone": "(253) 530-2000",
    "Appointment Needed": "Yes"
  },
  {
    "Name": "Franciscan Medical Clinic",
    "Address": "30809 First Ave S, Federal Way, WA",
    "Hours": "8A.M.- 8P.M",
    "Latitude": 47.325463,
    "Longitude": -122.3353572,
    "State": "Washington",
    "Phone": "(253) 839-2030\n",
    "Appointment Needed": "Yes"
  },
  {
    "Name": "Everett Memorial Stadium",
    "Address": "3900 Broadway, Everett, WA 98201",
    "Hours": "24 Hours",
    "Latitude": 47.9657285,
    "Longitude": -122.2021849,
    "State": "Washington",
    "Appointment Needed": "Yes",
    "Drive Through": true
  },
  {
    "Name": "Harrison Medical Center",
    "Address": "2520 Cherry Ave, Bremerton, WA",
    "Hours": "8A.M.- 8P.M",
    "Latitude": 47.5829409,
    "Longitude": -122.6251543,
    "State": "Washington",
    "Phone": "(360) 744-3911",
    "Appointment Needed": "Yes"
  },
  {
    "Name": "Grant County Health District",
    "Address": "Grant County Health District\n 1038 W. Ivy Suite 1, Moses Lake, WA 98837",
    "Latitude": 47.12266,
    "Longitude": -119.289971,
    "State": "Washington",
    "Phone": "509-766-7960",
    "Main Website": "http://granthealth.org/updates-for-covid-19-in-grant-county/",
    "Appointment Needed": "Yes"
  },
  {
    "Name": "Whitman County Public Health",
    "Address": "Whitman County Public Health\n 310 North Main Street, Colfax, WA",
    "Latitude": 46.883233,
    "Longitude": -117.3644031,
    "State": "Washington",
    "Phone": "509-397-6280, 800-525-0127",
    "Main Website": "http://www.whitmancounty.org/page.aspx?pn=public+health",
    "Appointment Needed": "Yes"
  },
  {
    "Name": "Yakima Health District",
    "Address": "Yakima Health District\n 1210 Ahtanum Ridge Drive, Union Gap, WA",
    "Latitude": 46.5562067,
    "Longitude": -120.4943326,
    "State": "Washington",
    "Phone": "509-575-4040",
    "Main Website": "http://www.yakimahealthdistrict.org/",
    "Appointment Needed": "Yes"
  },
  {
    "Name": "Benton Franklin Health District",
    "Address": "Benton Franklin Health District\n 7102 West Okanogan Place, Kennewick, WA",
    "Latitude": 46.2232794,
    "Longitude": -119.2164502,
    "State": "Washington",
    "Phone": "509-460-4200",
    "Main Website": "https://www.bfhd.wa.gov/",
    "Appointment Needed": "Yes"
  },
  {
    "Name": "Toppenish Health Department",
    "Address": "Toppenish Health Department\n 518 West 1st Avenue, Toppenish, WA",
    "Latitude": 46.3748481,
    "Longitude": -120.3190456,
    "State": "Washington",
    "Phone": "509-865-2725, 800-525-0127",
    "Main Website": "https://www.doh.wa.gov/Emergencies/NovelCoronavirusOutbreak2020/TestingforCOVID19",
    "Appointment Needed": "Yes"
  },
  {
    "Name": "Grandview Health Department",
    "Address": "Grandview Health Department\n 1000 Wallace Way, Grandview, WA",
    "Latitude": 46.2660901,
    "Longitude": -119.9225654,
    "State": "Washington",
    "Phone": "509-882-2094, 800-525-0127",
    "Main Website": "https://www.doh.wa.gov/Emergencies/NovelCoronavirusOutbreak2020/TestingforCOVID19",
    "Appointment Needed": "Yes"
  },
  {
    "Name": "Whitman County Health Department",
    "Address": "Whitman County Health Department\n 1205 Southeast Professional Mall Boulevard, Pullman, WA",
    "Latitude": 46.7186338,
    "Longitude": -117.1657694,
    "State": "Washington",
    "Phone": "509-332-6752, 800-525-0127",
    "Main Website": "https://www.doh.wa.gov/Emergencies/NovelCoronavirusOutbreak2020/TestingforCOVID19",
    "Appointment Needed": "Yes"
  },
  {
    "Name": "Goldendale Health Department",
    "Address": "Goldendale Health Department\n 228 West Main Street, Goldendale, WA",
    "Latitude": 45.8222225,
    "Longitude": -120.825095,
    "State": "Washington",
    "Phone": "509-773-4565, 800-525-0127",
    "Main Website": "https://www.doh.wa.gov/Emergencies/NovelCoronavirusOutbreak2020/TestingforCOVID19",
    "Appointment Needed": "Yes"
  },
  {
    "Name": "Klickitat County Health Department",
    "Address": "Klickitat County Health Department\n 501 Northeast Washington Street, White Salmon, WA",
    "Latitude": 45.7294552,
    "Longitude": -121.4807452,
    "State": "Washington",
    "Phone": "509-493-0499, 800-525-0127",
    "Main Website": "https://www.doh.wa.gov/Emergencies/NovelCoronavirusOutbreak2020/TestingforCOVID19",
    "Appointment Needed": "Yes"
  },
  {
    "Name": "Kittitas County Health Department",
    "Address": "Kittitas County Health Department\n 507 North Nanum Street, Ellensburg, WA",
    "Latitude": 46.9972771,
    "Longitude": -120.5531129,
    "State": "Washington",
    "Phone": "509-674-2584, 800-525-0127",
    "Main Website": "https://www.doh.wa.gov/Emergencies/NovelCoronavirusOutbreak2020/TestingforCOVID19",
    "Appointment Needed": "Yes"
  },
  {
    "Name": "Benton County Health Department",
    "Address": "Benton County Health Department\n 800 West Canal Drive, Kennewick, WA",
    "Latitude": 46.2232794,
    "Longitude": -119.2164502,
    "State": "Washington",
    "Phone": "509-582-7761, 800-525-0127",
    "Main Website": "https://www.doh.wa.gov/Emergencies/NovelCoronavirusOutbreak2020/TestingforCOVID19",
    "Appointment Needed": "Yes"
  },
  {
    "Name": "Benton Franklin Health Department",
    "Address": "Benton Franklin Health Department\n 310 7th St, Prosser, WA",
    "Latitude": 46.2232794,
    "Longitude": -119.2164502,
    "State": "Washington",
    "Phone": "509-786-1633, 800-525-0127",
    "Main Website": "https://www.doh.wa.gov/Emergencies/NovelCoronavirusOutbreak2020/TestingforCOVID19",
    "Appointment Needed": "Yes"
  },
  {
    "Name": "Wapato Health Department",
    "Address": "Wapato Health Department\n 620 West 1st Street, Wapato, WA",
    "Latitude": 46.4483227,
    "Longitude": -120.4271273,
    "State": "Washington",
    "Phone": "509-877-0474, 800-525-0127",
    "Main Website": "https://www.doh.wa.gov/Emergencies/NovelCoronavirusOutbreak2020/TestingforCOVID19",
    "Appointment Needed": "Yes"
  },
  {
    "Name": "George Washington University Hospital: Foggy Bottom Campus",
    "Address": "900 23rd Street, NW, Washington, DC 20037",
    "Hours": "24 Hours",
    "Latitude": 38.901261,
    "Longitude": -77.0507412,
    "State": "Washington DC",
    "Phone": "(202) 715-4000",
    "Appointment Needed": "Yes",
    "Drive Through": true
  },
  {
    "Name": "George Washington University Hospital: Foggy Bottom Campus",
    "Address": "900 23rd St NW, Washington, DC 20037",
    "Hours": "24 Hours",
    "Latitude": 38.901261,
    "Longitude": -77.0507412,
    "State": "Washington DC",
    "Phone": "(202) 715-4000",
    "Appointment Needed": "Yes",
    "Drive Through": true
  },
  {
    "Name": "Holy Cross Hospital\n",
    "Address": "1500 Forest Glen Rd, Silver Spring, MD 20910",
    "Hours": "24 Hours",
    "Latitude": 39.0147079,
    "Longitude": -77.0347487,
    "State": "Washington DC",
    "Phone": "(301) 754-7000",
    "Appointment Needed": "Yes",
    "Drive Through": true
  },
  {
    "Name": "Holy Cross Germantown Hospital Emergency Room",
    "Address": "19801 Observation Dr, Germantown, MD 20876",
    "Latitude": 39.1816721,
    "Longitude": -77.242491,
    "State": "Washington DC",
    "Phone": "(301) 557-6000",
    "Appointment Needed": "Yes",
    "Drive Through": true
  },
  {
    "Name": "MDOT MVA Vehicle Inspection/Emission Center: Silver Spring",
    "Address": "2121 Industrial Parkway, Silver Spring, MD 20904",
    "Hours": "24 Hours",
    "Latitude": 39.054494,
    "Longitude": -76.9703819,
    "State": "Washington DC",
    "Appointment Needed": "Yes",
    "Drive Through": true
  },
  {
    "Name": "George Washington University Hospital: Foggy Bottom Campus",
    "Address": "900 23rd Street, NW, Washington, DC 20037",
    "Hours": "24 Hours",
    "Latitude": 38.901261,
    "Longitude": -77.0507412,
    "State": "Washington DC",
    "Phone": "(202) 715-4000",
    "Appointment Needed": "Yes",
    "Drive Through": true
  },
  {
    "Name": "MDOT MVA Vehicle Inspection/Emission Center: Gaithersburg",
    "Address": "15 Metropolitan Grove Road, Gaithersburg, MD 20878",
    "Hours": "24 Hours",
    "Latitude": 39.1482391,
    "Longitude": -77.2258757,
    "State": "Washington DC",
    "Appointment Needed": "Yes",
    "Drive Through": true
  },
  {
    "Name": "Children's National Hospital",
    "Address": "Trinity Washington University, 125 Michigan Ave NEWashington, DC 20017",
    "Hours": "24 Hours",
    "Latitude": 38.9275815,
    "Longitude": -77.0049153,
    "State": "Washington DC",
    "Phone": "(888) 884-2327",
    "Appointment Needed": "Yes",
    "Drive Through": true
  },
  {
    "Name": "MDOT MVA Vehicle Inspection/Emission Center: White Oak",
    "Address": "2131 Industrial Parkway, White Oak, MD 20904",
    "Hours": "24 Hours",
    "Latitude": 39.0535059,
    "Longitude": -76.9706083,
    "State": "Washington DC",
    "Appointment Needed": "Yes",
    "Drive Through": true
  },
  {
    "Name": "MDOT MVA Vehicle Inspection/Emission Center: Derwood",
    "Address": "15910 Chieftain Avenue, Derwood, MD 20855",
    "Hours": "24 Hours",
    "Latitude": 39.1179541,
    "Longitude": -77.1618624,
    "State": "Washington DC",
    "Appointment Needed": "Yes",
    "Drive Through": true
  },
  {
    "Name": "Adventist HealthCare White Oak Medical Center",
    "Address": "11890 Healing Way, Silver Spring, MD 20904",
    "Hours": "24 Hours",
    "Latitude": 39.0494367,
    "Longitude": -76.9576649,
    "State": "Washington DC",
    "Phone": "(240) 637-4000",
    "Appointment Needed": "Yes",
    "Drive Through": true
  },
  {
    "Name": "MDOT MVA Vehicle Inspection/Emission Center: Walnut Hill",
    "Address": "16520 S. Westland Drive, Walnut Hill, MD 20877",
    "Hours": "24 Hours",
    "Latitude": 39.1272581,
    "Longitude": -77.1824889,
    "State": "Washington DC",
    "Appointment Needed": "Yes",
    "Drive Through": true
  },
  {
    "Name": "Virigina Hospital Center\n",
    "Address": "Drive-Thru: 1429 N. Quincy St., Arlington, VA 22207",
    "Hours": "9A.M.- 3P.M",
    "Latitude": 38.889278,
    "Longitude": -77.106645,
    "State": "Washington DC",
    "Phone": "(703) 558-5000",
    "Appointment Needed": "Yes",
    "Drive Through": true
  },
  {
    "Name": "Suburban Hospital",
    "Address": "Address: 8600 Old Georgetown Rd, Bethesda, MD 20814",
    "Hours": "24 Hours",
    "Latitude": 38.9972577,
    "Longitude": -77.110582,
    "State": "Washington DC",
    "Phone": "(301) 896-3100",
    "Appointment Needed": "Yes",
    "Drive Through": true
  },
  {
    "Name": "MDOT MVA Vehicle Inspection/Emission Center: Glenmont",
    "Address": "12335 Georgia Avenue, Glenmont, MD 20906\n",
    "Hours": "24 Hours",
    "Latitude": 39.059396,
    "Longitude": -77.0499985,
    "State": "Washington DC",
    "Appointment Needed": "Yes",
    "Drive Through": true
  },
  {
    "Name": "Adventist HealthCare Shady Grove Medical Center",
    "Address": "9901 Medical Center Dr, Rockville, MD 20850",
    "Hours": "24 Hours",
    "Latitude": 39.0980422,
    "Longitude": -77.1982981,
    "State": "Washington DC",
    "Phone": "(240) 826-6000",
    "Appointment Needed": "Yes",
    "Drive Through": true
  },
  {
    "Name": "MedStar Montgomery Medical Center",
    "Address": "18101 Prince Philip Dr, Olney, MD 20832",
    "Hours": "24 Hours",
    "Latitude": 39.1540614,
    "Longitude": -77.0547374,
    "State": "Washington DC",
    "Phone": "(301) 774-8882",
    "Appointment Needed": "Yes",
    "Drive Through": true
  },
  {
    "Name": "Cheyenne Regional Medical Center\n",
    "Address": "214 E 23rd St, Cheyenne, WY 82001",
    "Hours": "9A.M.- 5P.M",
    "Latitude": 41.140603,
    "Longitude": -104.8165116,
    "State": "Wyoming",
    "Phone": "(307) 634-2273",
    "Appointment Needed": "Yes",
    "Drive Through": true
  }
]